{
"type": "FeatureCollection",
                                                                                
"features": [
{ "type": "Feature", "properties": { "id": 3094, "latitude": 57.698, "longitude": -2.121, "Location": "Rosehearty Samos" }, "geometry": { "type": "Point", "coordinates": [ -2.121, 57.698 ] } }
,
{ "type": "Feature", "properties": { "id": 3144, "latitude": 56.326, "longitude": -3.729, "Location": "Strathallan" }, "geometry": { "type": "Point", "coordinates": [ -3.729, 56.326 ] } }
,
{ "type": "Feature", "properties": { "id": 3166, "latitude": 55.928, "longitude": -3.343, "Location": "Edinburgh\/Gogarbank" }, "geometry": { "type": "Point", "coordinates": [ -3.343, 55.928 ] } }
,
{ "type": "Feature", "properties": { "id": 3204, "latitude": 54.0849, "longitude": -4.6321, "Location": "Ronaldsway" }, "geometry": { "type": "Point", "coordinates": [ -4.6321, 54.0849 ] } }
,
{ "type": "Feature", "properties": { "id": 3210, "latitude": 54.518, "longitude": -3.615, "Location": "St. Bees Head" }, "geometry": { "type": "Point", "coordinates": [ -3.615, 54.518 ] } }
,
{ "type": "Feature", "properties": { "id": 3220, "latitude": 54.933, "longitude": -2.963, "Location": "Carlisle" }, "geometry": { "type": "Point", "coordinates": [ -2.963, 54.933 ] } }
,
{ "type": "Feature", "properties": { "id": 3224, "latitude": 55.05, "longitude": -2.553, "Location": "Spadeadam" }, "geometry": { "type": "Point", "coordinates": [ -2.553, 55.05 ] } }
,
{ "type": "Feature", "properties": { "id": 3257, "latitude": 54.296, "longitude": -1.53, "Location": "Leeming" }, "geometry": { "type": "Point", "coordinates": [ -1.53, 54.296 ] } }
,
{ "type": "Feature", "properties": { "id": 3261, "latitude": 54.134, "longitude": -1.414, "Location": "Dishforth Airfield" }, "geometry": { "type": "Point", "coordinates": [ -1.414, 54.134 ] } }
,
{ "type": "Feature", "properties": { "id": 3382, "latitude": 53.867, "longitude": -0.433, "Location": "Leconfield Sar" }, "geometry": { "type": "Point", "coordinates": [ -0.433, 53.867 ] } }
,
{ "type": "Feature", "properties": { "id": 3392, "latitude": 53.088, "longitude": 0.274, "Location": "Wainfleet" }, "geometry": { "type": "Point", "coordinates": [ 0.274, 53.088 ] } }
,
{ "type": "Feature", "properties": { "id": 6, "latitude": 50.9561, "longitude": 0.9392, "Location": "Lydd" }, "geometry": { "type": "Point", "coordinates": [ 0.9392, 50.9561 ] } }
,
{ "type": "Feature", "properties": { "id": 22, "latitude": 53.5797, "longitude": -0.3472, "Location": "Humberside Airport" }, "geometry": { "type": "Point", "coordinates": [ -0.3472, 53.5797 ] } }
,
{ "type": "Feature", "properties": { "id": 3006, "latitude": 60.447, "longitude": -1.277, "Location": "Sella Ness" }, "geometry": { "type": "Point", "coordinates": [ -1.277, 60.447 ] } }
,
{ "type": "Feature", "properties": { "id": 3037, "latitude": 57.257, "longitude": -5.809, "Location": "Skye\/Lusa (Samos)" }, "geometry": { "type": "Point", "coordinates": [ -5.809, 57.257 ] } }
,
{ "type": "Feature", "properties": { "id": 99003, "latitude": 58.167, "longitude": -4.733, "Location": "Cassley" }, "geometry": { "type": "Point", "coordinates": [ -4.733, 58.167 ] } }
,
{ "type": "Feature", "properties": { "id": 3405, "latitude": 52.789, "longitude": -4.742, "Location": "Aberdaron" }, "geometry": { "type": "Point", "coordinates": [ -4.742, 52.789 ] } }
,
{ "type": "Feature", "properties": { "id": 3414, "latitude": 52.794, "longitude": -2.663, "Location": "Shawbury" }, "geometry": { "type": "Point", "coordinates": [ -2.663, 52.794 ] } }
,
{ "type": "Feature", "properties": { "id": 3453, "latitude": 52.727, "longitude": -0.654, "Location": "Cottesmore" }, "geometry": { "type": "Point", "coordinates": [ -0.654, 52.727 ] } }
,
{ "type": "Feature", "properties": { "id": 3482, "latitude": 52.651, "longitude": 0.569, "Location": "Marham" }, "geometry": { "type": "Point", "coordinates": [ 0.569, 52.651 ] } }
,
{ "type": "Feature", "properties": { "id": 3503, "latitude": 52.344, "longitude": -3.947, "Location": "Trawsgoed" }, "geometry": { "type": "Point", "coordinates": [ -3.947, 52.344 ] } }
,
{ "type": "Feature", "properties": { "id": 3507, "latitude": 52.063, "longitude": -3.614, "Location": "Sennybridge" }, "geometry": { "type": "Point", "coordinates": [ -3.614, 52.063 ] } }
,
{ "type": "Feature", "properties": { "id": 3604, "latitude": 51.708, "longitude": -5.055, "Location": "Milford Haven C.B." }, "geometry": { "type": "Point", "coordinates": [ -5.055, 51.708 ] } }
,
{ "type": "Feature", "properties": { "id": 3628, "latitude": 51.521, "longitude": -2.576, "Location": "Filton" }, "geometry": { "type": "Point", "coordinates": [ -2.576, 51.521 ] } }
,
{ "type": "Feature", "properties": { "id": 3649, "latitude": 51.758, "longitude": -1.576, "Location": "Brize Norton" }, "geometry": { "type": "Point", "coordinates": [ -1.576, 51.758 ] } }
,
{ "type": "Feature", "properties": { "id": 3672, "latitude": 51.548, "longitude": -0.415, "Location": "Northolt" }, "geometry": { "type": "Point", "coordinates": [ -0.415, 51.548 ] } }
,
{ "type": "Feature", "properties": { "id": 3710, "latitude": 51.087, "longitude": -3.608, "Location": "Liscombe" }, "geometry": { "type": "Point", "coordinates": [ -3.608, 51.087 ] } }
,
{ "type": "Feature", "properties": { "id": 3716, "latitude": 51.405, "longitude": -3.44, "Location": "St-Athan" }, "geometry": { "type": "Point", "coordinates": [ -3.44, 51.405 ] } }
,
{ "type": "Feature", "properties": { "id": 3761, "latitude": 51.238, "longitude": -0.944, "Location": "Odiham" }, "geometry": { "type": "Point", "coordinates": [ -0.944, 51.238 ] } }
,
{ "type": "Feature", "properties": { "id": 3772, "latitude": 51.479, "longitude": -0.449, "Location": "Heathrow" }, "geometry": { "type": "Point", "coordinates": [ -0.449, 51.479 ] } }
,
{ "type": "Feature", "properties": { "id": 3797, "latitude": 51.3422, "longitude": 1.3461, "Location": "Manston" }, "geometry": { "type": "Point", "coordinates": [ 1.3461, 51.3422 ] } }
,
{ "type": "Feature", "properties": { "id": 3827, "latitude": 50.354, "longitude": -4.121, "Location": "Mount Batten" }, "geometry": { "type": "Point", "coordinates": [ -4.121, 50.354 ] } }
,
{ "type": "Feature", "properties": { "id": 3895, "latitude": 49.2079, "longitude": -2.1955, "Location": "Jersey" }, "geometry": { "type": "Point", "coordinates": [ -2.1955, 49.2079 ] } }
,
{ "type": "Feature", "properties": { "id": 3916, "latitude": 55.181, "longitude": -6.153, "Location": "Ballypatrick Forest" }, "geometry": { "type": "Point", "coordinates": [ -6.153, 55.181 ] } }
,
{ "type": "Feature", "properties": { "id": 3928, "latitude": 54.852, "longitude": -5.83, "Location": "Larne" }, "geometry": { "type": "Point", "coordinates": [ -5.83, 54.852 ] } }
,
{ "type": "Feature", "properties": { "id": 310006, "latitude": 52.4065, "longitude": -1.5182, "Location": "Coventry" }, "geometry": { "type": "Point", "coordinates": [ -1.5182, 52.4065 ] } }
,
{ "type": "Feature", "properties": { "id": 310023, "latitude": 54.1088, "longitude": -3.2175, "Location": "Barrow-In-Furness" }, "geometry": { "type": "Point", "coordinates": [ -3.2175, 54.1088 ] } }
,
{ "type": "Feature", "properties": { "id": 310026, "latitude": 51.3754, "longitude": -2.3585, "Location": "Bath" }, "geometry": { "type": "Point", "coordinates": [ -2.3585, 51.3754 ] } }
,
{ "type": "Feature", "properties": { "id": 310034, "latitude": 50.7187, "longitude": -1.8794, "Location": "Bournemouth" }, "geometry": { "type": "Point", "coordinates": [ -1.8794, 50.7187 ] } }
,
{ "type": "Feature", "properties": { "id": 320313, "latitude": 54.4862, "longitude": -0.6117, "Location": "Whitby" }, "geometry": { "type": "Point", "coordinates": [ -0.6117, 54.4862 ] } }
,
{ "type": "Feature", "properties": { "id": 321942, "latitude": 56.6218, "longitude": -3.8656, "Location": "Aberfeldy" }, "geometry": { "type": "Point", "coordinates": [ -3.8656, 56.6218 ] } }
,
{ "type": "Feature", "properties": { "id": 310046, "latitude": 51.7345, "longitude": 0.4778, "Location": "Chelmsford" }, "geometry": { "type": "Point", "coordinates": [ 0.4778, 51.7345 ] } }
,
{ "type": "Feature", "properties": { "id": 310056, "latitude": 53.1001, "longitude": -2.4424, "Location": "Crewe" }, "geometry": { "type": "Point", "coordinates": [ -2.4424, 53.1001 ] } }
,
{ "type": "Feature", "properties": { "id": 310069, "latitude": 50.7179, "longitude": -3.5327, "Location": "Exeter" }, "geometry": { "type": "Point", "coordinates": [ -3.5327, 50.7179 ] } }
,
{ "type": "Feature", "properties": { "id": 310071, "latitude": 51.0809, "longitude": 1.1711, "Location": "Folkestone" }, "geometry": { "type": "Point", "coordinates": [ 1.1711, 51.0809 ] } }
,
{ "type": "Feature", "properties": { "id": 310103, "latitude": 55.9007, "longitude": -3.5167, "Location": "Livingston" }, "geometry": { "type": "Point", "coordinates": [ -3.5167, 55.9007 ] } }
,
{ "type": "Feature", "properties": { "id": 310104, "latitude": 52.4807, "longitude": 1.7553, "Location": "Lowestoft" }, "geometry": { "type": "Point", "coordinates": [ 1.7553, 52.4807 ] } }
,
{ "type": "Feature", "properties": { "id": 310105, "latitude": 51.8783, "longitude": -0.4155, "Location": "Luton" }, "geometry": { "type": "Point", "coordinates": [ -0.4155, 51.8783 ] } }
,
{ "type": "Feature", "properties": { "id": 310108, "latitude": 51.3892, "longitude": 1.3886, "Location": "Margate" }, "geometry": { "type": "Point", "coordinates": [ 1.3886, 51.3892 ] } }
,
{ "type": "Feature", "properties": { "id": 310121, "latitude": 50.7139, "longitude": -1.9866, "Location": "Poole" }, "geometry": { "type": "Point", "coordinates": [ -1.9866, 50.7139 ] } }
,
{ "type": "Feature", "properties": { "id": 310130, "latitude": 53.3418, "longitude": -2.7283, "Location": "Runcorn" }, "geometry": { "type": "Point", "coordinates": [ -2.7283, 53.3418 ] } }
,
{ "type": "Feature", "properties": { "id": 310150, "latitude": 51.5556, "longitude": -1.7784, "Location": "Swindon" }, "geometry": { "type": "Point", "coordinates": [ -1.7784, 51.5556 ] } }
,
{ "type": "Feature", "properties": { "id": 310170, "latitude": 57.1498, "longitude": -2.0927, "Location": "Aberdeen" }, "geometry": { "type": "Point", "coordinates": [ -2.0927, 57.1498 ] } }
,
{ "type": "Feature", "properties": { "id": 310191, "latitude": 50.7623, "longitude": -1.2991, "Location": "Cowes" }, "geometry": { "type": "Point", "coordinates": [ -1.2991, 50.7623 ] } }
,
{ "type": "Feature", "properties": { "id": 322064, "latitude": 51.8157, "longitude": 1.0231, "Location": "Brightlingsea" }, "geometry": { "type": "Point", "coordinates": [ 1.0231, 51.8157 ] } }
,
{ "type": "Feature", "properties": { "id": 322944, "latitude": 55.8881, "longitude": -4.8904, "Location": "Wemyss Bay" }, "geometry": { "type": "Point", "coordinates": [ -4.8904, 55.8881 ] } }
,
{ "type": "Feature", "properties": { "id": 322951, "latitude": 52.666, "longitude": 0.1605, "Location": "Wisbech" }, "geometry": { "type": "Point", "coordinates": [ 0.1605, 52.666 ] } }
,
{ "type": "Feature", "properties": { "id": 322953, "latitude": 54.6435, "longitude": -3.5414, "Location": "Workington" }, "geometry": { "type": "Point", "coordinates": [ -3.5414, 54.6435 ] } }
,
{ "type": "Feature", "properties": { "id": 322636, "latitude": 50.1686, "longitude": -5.106, "Location": "Penryn" }, "geometry": { "type": "Point", "coordinates": [ -5.106, 50.1686 ] } }
,
{ "type": "Feature", "properties": { "id": 320003, "latitude": 51.0683, "longitude": -1.7931, "Location": "Salisbury" }, "geometry": { "type": "Point", "coordinates": [ -1.7931, 51.0683 ] } }
,
{ "type": "Feature", "properties": { "id": 322172, "latitude": 54.3446, "longitude": -7.6313, "Location": "Enniskillen" }, "geometry": { "type": "Point", "coordinates": [ -7.6313, 54.3446 ] } }
,
{ "type": "Feature", "properties": { "id": 322193, "latitude": 51.9936, "longitude": -4.9749, "Location": "Fishguard" }, "geometry": { "type": "Point", "coordinates": [ -4.9749, 51.9936 ] } }
,
{ "type": "Feature", "properties": { "id": 322230, "latitude": 55.2401, "longitude": -4.853, "Location": "Girvan" }, "geometry": { "type": "Point", "coordinates": [ -4.853, 55.2401 ] } }
,
{ "type": "Feature", "properties": { "id": 322234, "latitude": 53.7027, "longitude": -0.8748, "Location": "Goole" }, "geometry": { "type": "Point", "coordinates": [ -0.8748, 53.7027 ] } }
,
{ "type": "Feature", "properties": { "id": 322281, "latitude": 51.5, "longitude": -0.42, "Location": "Hayes" }, "geometry": { "type": "Point", "coordinates": [ -0.42, 51.5 ] } }
,
{ "type": "Feature", "properties": { "id": 322324, "latitude": 51.45, "longitude": 0.71, "Location": "Isle Of Grain" }, "geometry": { "type": "Point", "coordinates": [ 0.71, 51.45 ] } }
,
{ "type": "Feature", "properties": { "id": 324152, "latitude": 51.3775, "longitude": -0.0933, "Location": "Croydon" }, "geometry": { "type": "Point", "coordinates": [ -0.0933, 51.3775 ] } }
,
{ "type": "Feature", "properties": { "id": 324153, "latitude": 51.4119, "longitude": -0.2991, "Location": "Kingston Upon Thames" }, "geometry": { "type": "Point", "coordinates": [ -0.2991, 51.4119 ] } }
,
{ "type": "Feature", "properties": { "id": 324157, "latitude": 55.427, "longitude": -2.7795, "Location": "Hawick" }, "geometry": { "type": "Point", "coordinates": [ -2.7795, 55.427 ] } }
,
{ "type": "Feature", "properties": { "id": 324162, "latitude": 52.0308, "longitude": -0.4946, "Location": "Ampthill" }, "geometry": { "type": "Point", "coordinates": [ -0.4946, 52.0308 ] } }
,
{ "type": "Feature", "properties": { "id": 324166, "latitude": 52.0857, "longitude": -0.2626, "Location": "Biggleswade" }, "geometry": { "type": "Point", "coordinates": [ -0.2626, 52.0857 ] } }
,
{ "type": "Feature", "properties": { "id": 324173, "latitude": 51.7181, "longitude": -1.9668, "Location": "Cirencester" }, "geometry": { "type": "Point", "coordinates": [ -1.9668, 51.7181 ] } }
,
{ "type": "Feature", "properties": { "id": 324181, "latitude": 53.2796, "longitude": -2.896, "Location": "Ellesmere Port" }, "geometry": { "type": "Point", "coordinates": [ -2.896, 53.2796 ] } }
,
{ "type": "Feature", "properties": { "id": 324185, "latitude": 57.1441, "longitude": -4.6798, "Location": "Fort Augustus" }, "geometry": { "type": "Point", "coordinates": [ -4.6798, 57.1441 ] } }
,
{ "type": "Feature", "properties": { "id": 324190, "latitude": 57.3306, "longitude": -3.6082, "Location": "Grantown-On-Spey" }, "geometry": { "type": "Point", "coordinates": [ -3.6082, 57.3306 ] } }
,
{ "type": "Feature", "properties": { "id": 324194, "latitude": 52.5451, "longitude": -1.3752, "Location": "Hinckley" }, "geometry": { "type": "Point", "coordinates": [ -1.3752, 52.5451 ] } }
,
{ "type": "Feature", "properties": { "id": 324198, "latitude": 52.396, "longitude": -0.7287, "Location": "Kettering" }, "geometry": { "type": "Point", "coordinates": [ -0.7287, 52.396 ] } }
,
{ "type": "Feature", "properties": { "id": 324200, "latitude": 55.1222, "longitude": -3.3476, "Location": "Lockerbie" }, "geometry": { "type": "Point", "coordinates": [ -3.3476, 55.1222 ] } }
,
{ "type": "Feature", "properties": { "id": 324203, "latitude": 52.59, "longitude": -3.8522, "Location": "Machynlleth" }, "geometry": { "type": "Point", "coordinates": [ -3.8522, 52.59 ] } }
,
{ "type": "Feature", "properties": { "id": 324215, "latitude": 53.3211, "longitude": -0.9439, "Location": "Retford" }, "geometry": { "type": "Point", "coordinates": [ -0.9439, 53.3211 ] } }
,
{ "type": "Feature", "properties": { "id": 324224, "latitude": 52.6781, "longitude": -2.4439, "Location": "Telford" }, "geometry": { "type": "Point", "coordinates": [ -2.4439, 52.6781 ] } }
,
{ "type": "Feature", "properties": { "id": 324229, "latitude": 53.6831, "longitude": -1.5044, "Location": "Wakefield" }, "geometry": { "type": "Point", "coordinates": [ -1.5044, 53.6831 ] } }
,
{ "type": "Feature", "properties": { "id": 324235, "latitude": 53.3608, "longitude": -2.7322, "Location": "Widnes" }, "geometry": { "type": "Point", "coordinates": [ -2.7322, 53.3608 ] } }
,
{ "type": "Feature", "properties": { "id": 324237, "latitude": 51.9445, "longitude": -0.8772, "Location": "Winslow" }, "geometry": { "type": "Point", "coordinates": [ -0.8772, 51.9445 ] } }
,
{ "type": "Feature", "properties": { "id": 324251, "latitude": 52.9311, "longitude": 1.3036, "Location": "Cromer" }, "geometry": { "type": "Point", "coordinates": [ 1.3036, 52.9311 ] } }
,
{ "type": "Feature", "properties": { "id": 324255, "latitude": 53.558, "longitude": -3.0674, "Location": "Formby" }, "geometry": { "type": "Point", "coordinates": [ -3.0674, 53.558 ] } }
,
{ "type": "Feature", "properties": { "id": 324259, "latitude": 54.9828, "longitude": -2.5379, "Location": "Greenhead Youth Hostel" }, "geometry": { "type": "Point", "coordinates": [ -2.5379, 54.9828 ] } }
,
{ "type": "Feature", "properties": { "id": 324262, "latitude": 51.9964, "longitude": -3.8007, "Location": "Llandovery" }, "geometry": { "type": "Point", "coordinates": [ -3.8007, 51.9964 ] } }
,
{ "type": "Feature", "properties": { "id": 324266, "latitude": 50.9016, "longitude": -3.49, "Location": "Tiverton" }, "geometry": { "type": "Point", "coordinates": [ -3.49, 50.9016 ] } }
,
{ "type": "Feature", "properties": { "id": 324268, "latitude": 51.5859, "longitude": -2.1014, "Location": "Malmesbury" }, "geometry": { "type": "Point", "coordinates": [ -2.1014, 51.5859 ] } }
,
{ "type": "Feature", "properties": { "id": 322847, "latitude": 54.59, "longitude": -1.15, "Location": "Teesport" }, "geometry": { "type": "Point", "coordinates": [ -1.15, 54.59 ] } }
,
{ "type": "Feature", "properties": { "id": 324049, "latitude": 54.6637, "longitude": -1.6772, "Location": "Bishop Auckland" }, "geometry": { "type": "Point", "coordinates": [ -1.6772, 54.6637 ] } }
,
{ "type": "Feature", "properties": { "id": 324059, "latitude": 51.7953, "longitude": -0.0796, "Location": "Hertford" }, "geometry": { "type": "Point", "coordinates": [ -0.0796, 51.7953 ] } }
,
{ "type": "Feature", "properties": { "id": 324064, "latitude": 54.9602, "longitude": -4.4819, "Location": "Newton Stewart" }, "geometry": { "type": "Point", "coordinates": [ -4.4819, 54.9602 ] } }
,
{ "type": "Feature", "properties": { "id": 324069, "latitude": 52.3252, "longitude": 1.682, "Location": "Southwold" }, "geometry": { "type": "Point", "coordinates": [ 1.682, 52.3252 ] } }
,
{ "type": "Feature", "properties": { "id": 324073, "latitude": 50.5506, "longitude": -4.1405, "Location": "Tavistock" }, "geometry": { "type": "Point", "coordinates": [ -4.1405, 50.5506 ] } }
,
{ "type": "Feature", "properties": { "id": 324076, "latitude": 58.567, "longitude": -4.75, "Location": "Durness" }, "geometry": { "type": "Point", "coordinates": [ -4.75, 58.567 ] } }
,
{ "type": "Feature", "properties": { "id": 322372, "latitude": 54.3279, "longitude": -2.7449, "Location": "Kendal" }, "geometry": { "type": "Point", "coordinates": [ -2.7449, 54.3279 ] } }
,
{ "type": "Feature", "properties": { "id": 322446, "latitude": 51.97, "longitude": -0.23, "Location": "Letchworth" }, "geometry": { "type": "Point", "coordinates": [ -0.23, 51.97 ] } }
,
{ "type": "Feature", "properties": { "id": 322467, "latitude": 56.54, "longitude": -5.79, "Location": "Lochaline" }, "geometry": { "type": "Point", "coordinates": [ -5.79, 56.54 ] } }
,
{ "type": "Feature", "properties": { "id": 322494, "latitude": 51.7314, "longitude": 0.6731, "Location": "Maldon" }, "geometry": { "type": "Point", "coordinates": [ 0.6731, 51.7314 ] } }
,
{ "type": "Feature", "properties": { "id": 322581, "latitude": 52.92, "longitude": -1.08, "Location": "Nottingham" }, "geometry": { "type": "Point", "coordinates": [ -1.08, 52.92 ] } }
,
{ "type": "Feature", "properties": { "id": 322718, "latitude": 56.0365, "longitude": -3.4216, "Location": "Rosyth" }, "geometry": { "type": "Point", "coordinates": [ -3.4216, 56.0365 ] } }
,
{ "type": "Feature", "properties": { "id": 322752, "latitude": 60.1381, "longitude": -1.2804, "Location": "Scalloway" }, "geometry": { "type": "Point", "coordinates": [ -1.2804, 60.1381 ] } }
,
{ "type": "Feature", "properties": { "id": 322757, "latitude": 58.611, "longitude": -3.551, "Location": "Scrabster" }, "geometry": { "type": "Point", "coordinates": [ -3.551, 58.611 ] } }
,
{ "type": "Feature", "properties": { "id": 322758, "latitude": 54.8402, "longitude": -1.3359, "Location": "Seaham" }, "geometry": { "type": "Point", "coordinates": [ -1.3359, 54.8402 ] } }
,
{ "type": "Feature", "properties": { "id": 322763, "latitude": 51.72, "longitude": -2.47, "Location": "Sharpness" }, "geometry": { "type": "Point", "coordinates": [ -2.47, 51.72 ] } }
,
{ "type": "Feature", "properties": { "id": 322774, "latitude": 54.8683, "longitude": -3.3881, "Location": "Silloth" }, "geometry": { "type": "Point", "coordinates": [ -3.3881, 54.8683 ] } }
,
{ "type": "Feature", "properties": { "id": 324387, "latitude": 51.5077, "longitude": -0.165, "Location": "Hyde Park" }, "geometry": { "type": "Point", "coordinates": [ -0.165, 51.5077 ] } }
,
{ "type": "Feature", "properties": { "id": 99203, "latitude": 51.534, "longitude": -0.009, "Location": "London  Olympic Park South" }, "geometry": { "type": "Point", "coordinates": [ -0.009, 51.534 ] } }
,
{ "type": "Feature", "properties": { "id": 322237, "latitude": 55.9828, "longitude": -3.232, "Location": "Granton" }, "geometry": { "type": "Point", "coordinates": [ -3.232, 55.9828 ] } }
,
{ "type": "Feature", "properties": { "id": 350003, "latitude": 53.0333, "longitude": -2.14, "Location": "Abbey Hulton" }, "geometry": { "type": "Point", "coordinates": [ -2.14, 53.0333 ] } }
,
{ "type": "Feature", "properties": { "id": 350007, "latitude": 51.6459, "longitude": -3.1323, "Location": "Abercarn" }, "geometry": { "type": "Point", "coordinates": [ -3.1323, 51.6459 ] } }
,
{ "type": "Feature", "properties": { "id": 350008, "latitude": 53.289, "longitude": -3.8456, "Location": "Aberconwy House" }, "geometry": { "type": "Point", "coordinates": [ -3.8456, 53.289 ] } }
,
{ "type": "Feature", "properties": { "id": 350012, "latitude": 57.145, "longitude": -2.1432, "Location": "Aberdeen Youth Hostel" }, "geometry": { "type": "Point", "coordinates": [ -2.1432, 57.145 ] } }
,
{ "type": "Feature", "properties": { "id": 350014, "latitude": 52.5437, "longitude": -4.0449, "Location": "Aberdovey" }, "geometry": { "type": "Point", "coordinates": [ -4.0449, 52.5437 ] } }
,
{ "type": "Feature", "properties": { "id": 350020, "latitude": 51.7313, "longitude": -3.1336, "Location": "Abertillery" }, "geometry": { "type": "Point", "coordinates": [ -3.1336, 51.7313 ] } }
,
{ "type": "Feature", "properties": { "id": 350021, "latitude": 52.415, "longitude": -4.0817, "Location": "Aberystwyth" }, "geometry": { "type": "Point", "coordinates": [ -4.0817, 52.415 ] } }
,
{ "type": "Feature", "properties": { "id": 350023, "latitude": 53.7534, "longitude": -2.3707, "Location": "Accrington" }, "geometry": { "type": "Point", "coordinates": [ -2.3707, 53.7534 ] } }
,
{ "type": "Feature", "properties": { "id": 350028, "latitude": 58.1699, "longitude": -5.3, "Location": "Achmelvich Youth Hostel" }, "geometry": { "type": "Point", "coordinates": [ -5.3, 58.1699 ] } }
,
{ "type": "Feature", "properties": { "id": 350029, "latitude": 57.1825, "longitude": -5.1542, "Location": "A'Chralaig" }, "geometry": { "type": "Point", "coordinates": [ -5.1542, 57.1825 ] } }
,
{ "type": "Feature", "properties": { "id": 350038, "latitude": 53.6108, "longitude": -2.6049, "Location": "Adlington" }, "geometry": { "type": "Point", "coordinates": [ -2.6049, 53.6108 ] } }
,
{ "type": "Feature", "properties": { "id": 350039, "latitude": 51.5322, "longitude": 0.7199, "Location": "Adventure Island" }, "geometry": { "type": "Point", "coordinates": [ 0.7199, 51.5322 ] } }
,
{ "type": "Feature", "properties": { "id": 350042, "latitude": 55.1954, "longitude": -3.5944, "Location": "Ae Mountain Bike Trail Centre" }, "geometry": { "type": "Point", "coordinates": [ -3.5944, 55.1954 ] } }
,
{ "type": "Feature", "properties": { "id": 350046, "latitude": 53.4791, "longitude": -2.9359, "Location": "Aintree" }, "geometry": { "type": "Point", "coordinates": [ -2.9359, 53.4791 ] } }
,
{ "type": "Feature", "properties": { "id": 350049, "latitude": 52.2149, "longitude": -1.8662, "Location": "Alcester" }, "geometry": { "type": "Point", "coordinates": [ -1.8662, 52.2149 ] } }
,
{ "type": "Feature", "properties": { "id": 350053, "latitude": 52.4487, "longitude": -1.4706, "Location": "Alderman's Green" }, "geometry": { "type": "Point", "coordinates": [ -1.4706, 52.4487 ] } }
,
{ "type": "Feature", "properties": { "id": 350055, "latitude": 52.6057, "longitude": -1.9143, "Location": "Aldridge" }, "geometry": { "type": "Point", "coordinates": [ -1.9143, 52.6057 ] } }
,
{ "type": "Feature", "properties": { "id": 350065, "latitude": 52.4241, "longitude": -1.565, "Location": "Allesley" }, "geometry": { "type": "Point", "coordinates": [ -1.565, 52.4241 ] } }
,
{ "type": "Feature", "properties": { "id": 350070, "latitude": 54.8121, "longitude": -2.4372, "Location": "Alston" }, "geometry": { "type": "Point", "coordinates": [ -2.4372, 54.8121 ] } }
,
{ "type": "Feature", "properties": { "id": 350071, "latitude": 54.8052, "longitude": -2.4369, "Location": "Alston Youth Hostel" }, "geometry": { "type": "Point", "coordinates": [ -2.4369, 54.8052 ] } }
,
{ "type": "Feature", "properties": { "id": 350073, "latitude": 52.2815, "longitude": -1.0006, "Location": "Althorp House" }, "geometry": { "type": "Point", "coordinates": [ -1.0006, 52.2815 ] } }
,
{ "type": "Feature", "properties": { "id": 350075, "latitude": 53.3899, "longitude": -2.3495, "Location": "Altrincham" }, "geometry": { "type": "Point", "coordinates": [ -2.3495, 53.3899 ] } }
,
{ "type": "Feature", "properties": { "id": 310013, "latitude": 53.479, "longitude": -2.2465, "Location": "Manchester" }, "geometry": { "type": "Point", "coordinates": [ -2.2465, 53.479 ] } }
,
{ "type": "Feature", "properties": { "id": 310167, "latitude": 52.1933, "longitude": -2.2202, "Location": "Worcester" }, "geometry": { "type": "Point", "coordinates": [ -2.2202, 52.1933 ] } }
,
{ "type": "Feature", "properties": { "id": 310181, "latitude": 51.0162, "longitude": -4.2055, "Location": "Bideford" }, "geometry": { "type": "Point", "coordinates": [ -4.2055, 51.0162 ] } }
,
{ "type": "Feature", "properties": { "id": 324052, "latitude": 52.9846, "longitude": -1.985, "Location": "Cheadle (Staffordshire)" }, "geometry": { "type": "Point", "coordinates": [ -1.985, 52.9846 ] } }
,
{ "type": "Feature", "properties": { "id": 3134, "latitude": 55.907, "longitude": -4.533, "Location": "Glasgow\/Bishopton" }, "geometry": { "type": "Point", "coordinates": [ -4.533, 55.907 ] } }
,
{ "type": "Feature", "properties": { "id": 3162, "latitude": 55.311, "longitude": -3.206, "Location": "Eskdalemuir" }, "geometry": { "type": "Point", "coordinates": [ -3.206, 55.311 ] } }
,
{ "type": "Feature", "properties": { "id": 3385, "latitude": 53.473, "longitude": 0.154, "Location": "Donna Nook" }, "geometry": { "type": "Point", "coordinates": [ 0.154, 53.473 ] } }
,
{ "type": "Feature", "properties": { "id": 310240, "latitude": 51.3606, "longitude": 1.0259, "Location": "Whitstable" }, "geometry": { "type": "Point", "coordinates": [ 1.0259, 51.3606 ] } }
,
{ "type": "Feature", "properties": { "id": 99016, "latitude": 58.233, "longitude": -3.917, "Location": "Kinbrace" }, "geometry": { "type": "Point", "coordinates": [ -3.917, 58.233 ] } }
,
{ "type": "Feature", "properties": { "id": 354377, "latitude": 51.509, "longitude": -0.029, "Location": "Excel" }, "geometry": { "type": "Point", "coordinates": [ -0.029, 51.509 ] } }
,
{ "type": "Feature", "properties": { "id": 352193, "latitude": 58.0223, "longitude": -4.401, "Location": "Lairg" }, "geometry": { "type": "Point", "coordinates": [ -4.401, 58.0223 ] } }
,
{ "type": "Feature", "properties": { "id": 352198, "latitude": 51.5075, "longitude": -1.5301, "Location": "Lambourn" }, "geometry": { "type": "Point", "coordinates": [ -1.5301, 51.5075 ] } }
,
{ "type": "Feature", "properties": { "id": 352205, "latitude": 50.0641, "longitude": -5.709, "Location": "Land's End" }, "geometry": { "type": "Point", "coordinates": [ -5.709, 50.0641 ] } }
,
{ "type": "Feature", "properties": { "id": 352207, "latitude": 50.1134, "longitude": -5.6913, "Location": "Land's End Youth Hostel" }, "geometry": { "type": "Point", "coordinates": [ -5.6913, 50.1134 ] } }
,
{ "type": "Feature", "properties": { "id": 352209, "latitude": 54.4374, "longitude": -3.0206, "Location": "Langdale Youth Hostel" }, "geometry": { "type": "Point", "coordinates": [ -3.0206, 54.4374 ] } }
,
{ "type": "Feature", "properties": { "id": 352211, "latitude": 55.153, "longitude": -2.9975, "Location": "Langholm" }, "geometry": { "type": "Point", "coordinates": [ -2.9975, 55.153 ] } }
,
{ "type": "Feature", "properties": { "id": 352213, "latitude": 51.0377, "longitude": -2.8274, "Location": "Langport" }, "geometry": { "type": "Point", "coordinates": [ -2.8274, 51.0377 ] } }
,
{ "type": "Feature", "properties": { "id": 352214, "latitude": 53.5032, "longitude": -1.6769, "Location": "Langsett Youth Hostel" }, "geometry": { "type": "Point", "coordinates": [ -1.6769, 53.5032 ] } }
,
{ "type": "Feature", "properties": { "id": 352217, "latitude": 52.5336, "longitude": -0.9453, "Location": "Langton Hall" }, "geometry": { "type": "Point", "coordinates": [ -0.9453, 52.5336 ] } }
,
{ "type": "Feature", "properties": { "id": 352218, "latitude": 50.4402, "longitude": -4.691, "Location": "Lanhydrock" }, "geometry": { "type": "Point", "coordinates": [ -4.691, 50.4402 ] } }
,
{ "type": "Feature", "properties": { "id": 352223, "latitude": 50.9497, "longitude": -2.0747, "Location": "Larmer Tree Gardens" }, "geometry": { "type": "Point", "coordinates": [ -2.0747, 50.9497 ] } }
,
{ "type": "Feature", "properties": { "id": 352224, "latitude": 55.7229, "longitude": -2.7551, "Location": "Lauder" }, "geometry": { "type": "Point", "coordinates": [ -2.7551, 55.7229 ] } }
,
{ "type": "Feature", "properties": { "id": 352232, "latitude": 58.3753, "longitude": -5.0153, "Location": "Laxford Bridge" }, "geometry": { "type": "Point", "coordinates": [ -5.0153, 58.3753 ] } }
,
{ "type": "Feature", "properties": { "id": 352241, "latitude": 53.8011, "longitude": -1.547, "Location": "Leeds" }, "geometry": { "type": "Point", "coordinates": [ -1.547, 53.8011 ] } }
,
{ "type": "Feature", "properties": { "id": 352244, "latitude": 53.1089, "longitude": -2.0219, "Location": "Leek" }, "geometry": { "type": "Point", "coordinates": [ -2.0219, 53.1089 ] } }
,
{ "type": "Feature", "properties": { "id": 352248, "latitude": 51.4632, "longitude": -0.6549, "Location": "Legoland Windsor" }, "geometry": { "type": "Point", "coordinates": [ -0.6549, 51.4632 ] } }
,
{ "type": "Feature", "properties": { "id": 352249, "latitude": 52.6201, "longitude": -1.1407, "Location": "Leicester City F.C." }, "geometry": { "type": "Point", "coordinates": [ -1.1407, 52.6201 ] } }
,
{ "type": "Feature", "properties": { "id": 352250, "latitude": 52.6225, "longitude": -1.2225, "Location": "Leicester Forest East" }, "geometry": { "type": "Point", "coordinates": [ -1.2225, 52.6225 ] } }
,
{ "type": "Feature", "properties": { "id": 352255, "latitude": 57.3584, "longitude": -2.761, "Location": "Leith Hall Garden And Estate" }, "geometry": { "type": "Point", "coordinates": [ -2.761, 57.3584 ] } }
,
{ "type": "Feature", "properties": { "id": 352259, "latitude": 52.9382, "longitude": -1.2052, "Location": "Lenton Abbey" }, "geometry": { "type": "Point", "coordinates": [ -1.2052, 52.9382 ] } }
,
{ "type": "Feature", "properties": { "id": 352261, "latitude": 51.0193, "longitude": -0.2534, "Location": "Leonardslee Gardens" }, "geometry": { "type": "Point", "coordinates": [ -0.2534, 51.0193 ] } }
,
{ "type": "Feature", "properties": { "id": 352265, "latitude": 55.0706, "longitude": -6.5365, "Location": "Leslie Hill Open Farm & Gardens" }, "geometry": { "type": "Point", "coordinates": [ -6.5365, 55.0706 ] } }
,
{ "type": "Feature", "properties": { "id": 352268, "latitude": 51.9792, "longitude": -0.2208, "Location": "Letchworth Garden City" }, "geometry": { "type": "Point", "coordinates": [ -0.2208, 51.9792 ] } }
,
{ "type": "Feature", "properties": { "id": 352271, "latitude": 54.2573, "longitude": -2.7761, "Location": "Levens Hall" }, "geometry": { "type": "Point", "coordinates": [ -2.7761, 54.2573 ] } }
,
{ "type": "Feature", "properties": { "id": 352272, "latitude": 53.4509, "longitude": -2.1913, "Location": "Levenshulme" }, "geometry": { "type": "Point", "coordinates": [ -2.1913, 53.4509 ] } }
,
{ "type": "Feature", "properties": { "id": 352274, "latitude": 50.8734, "longitude": 0.0104, "Location": "Lewes" }, "geometry": { "type": "Point", "coordinates": [ 0.0104, 50.8734 ] } }
,
{ "type": "Feature", "properties": { "id": 352293, "latitude": 52.0553, "longitude": -0.7703, "Location": "Linford Wood" }, "geometry": { "type": "Point", "coordinates": [ -0.7703, 52.0553 ] } }
,
{ "type": "Feature", "properties": { "id": 352294, "latitude": 51.1674, "longitude": -0.0094, "Location": "Lingfield Park Racecourse" }, "geometry": { "type": "Point", "coordinates": [ -0.0094, 51.1674 ] } }
,
{ "type": "Feature", "properties": { "id": 352296, "latitude": 52.3485, "longitude": 1.4269, "Location": "Linstead Parva" }, "geometry": { "type": "Point", "coordinates": [ 1.4269, 52.3485 ] } }
,
{ "type": "Feature", "properties": { "id": 352299, "latitude": 54.3167, "longitude": -7.5352, "Location": "Lisbellaw" }, "geometry": { "type": "Point", "coordinates": [ -7.5352, 54.3167 ] } }
,
{ "type": "Feature", "properties": { "id": 352304, "latitude": 53.47, "longitude": -2.9936, "Location": "Litherland" }, "geometry": { "type": "Point", "coordinates": [ -2.9936, 53.47 ] } }
,
{ "type": "Feature", "properties": { "id": 352305, "latitude": 53.4879, "longitude": -2.3189, "Location": "Little Bolton" }, "geometry": { "type": "Point", "coordinates": [ -2.3189, 53.4879 ] } }
,
{ "type": "Feature", "properties": { "id": 352306, "latitude": 52.481, "longitude": -1.8248, "Location": "Little Bromwich" }, "geometry": { "type": "Point", "coordinates": [ -1.8248, 52.481 ] } }
,
{ "type": "Feature", "properties": { "id": 352307, "latitude": 53.784, "longitude": -1.7835, "Location": "Little Horton" }, "geometry": { "type": "Point", "coordinates": [ -1.7835, 53.784 ] } }
,
{ "type": "Feature", "properties": { "id": 352308, "latitude": 51.9687, "longitude": -0.8485, "Location": "Little Horwood" }, "geometry": { "type": "Point", "coordinates": [ -0.8485, 51.9687 ] } }
,
{ "type": "Feature", "properties": { "id": 352316, "latitude": 50.7073, "longitude": -2.6367, "Location": "Litton Cheney Youth Hostel" }, "geometry": { "type": "Point", "coordinates": [ -2.6367, 50.7073 ] } }
,
{ "type": "Feature", "properties": { "id": 352317, "latitude": 53.4312, "longitude": -2.9563, "Location": "Liverpool F.C." }, "geometry": { "type": "Point", "coordinates": [ -2.9563, 53.4312 ] } }
,
{ "type": "Feature", "properties": { "id": 352328, "latitude": 53.3054, "longitude": -4.1478, "Location": "Llanddona" }, "geometry": { "type": "Point", "coordinates": [ -4.1478, 53.3054 ] } }
,
{ "type": "Feature", "properties": { "id": 352337, "latitude": 51.6805, "longitude": -4.159, "Location": "Llanelli" }, "geometry": { "type": "Point", "coordinates": [ -4.159, 51.6805 ] } }
,
{ "type": "Feature", "properties": { "id": 352340, "latitude": 52.7659, "longitude": -3.2745, "Location": "Llanfyllin" }, "geometry": { "type": "Point", "coordinates": [ -3.2745, 52.7659 ] } }
,
{ "type": "Feature", "properties": { "id": 352343, "latitude": 52.9616, "longitude": -3.1394, "Location": "Llangollen Youth Hostel" }, "geometry": { "type": "Point", "coordinates": [ -3.1394, 52.9616 ] } }
,
{ "type": "Feature", "properties": { "id": 352344, "latitude": 51.9098, "longitude": -4.736, "Location": "Llangolman" }, "geometry": { "type": "Point", "coordinates": [ -4.736, 51.9098 ] } }
,
{ "type": "Feature", "properties": { "id": 352361, "latitude": 51.8826, "longitude": -3.7019, "Location": "Llyn Y Fan Fawr" }, "geometry": { "type": "Point", "coordinates": [ -3.7019, 51.8826 ] } }
,
{ "type": "Feature", "properties": { "id": 352363, "latitude": 58.239, "longitude": -6.2753, "Location": "Loch A' Tuath" }, "geometry": { "type": "Point", "coordinates": [ -6.2753, 58.239 ] } }
,
{ "type": "Feature", "properties": { "id": 352367, "latitude": 55.9063, "longitude": -5.6248, "Location": "Loch Caolisport" }, "geometry": { "type": "Point", "coordinates": [ -5.6248, 55.9063 ] } }
,
{ "type": "Feature", "properties": { "id": 352368, "latitude": 57.3829, "longitude": -5.49, "Location": "Loch Carron" }, "geometry": { "type": "Point", "coordinates": [ -5.49, 57.3829 ] } }
,
{ "type": "Feature", "properties": { "id": 352369, "latitude": 57.242, "longitude": -5.4777, "Location": "Loch Duich" }, "geometry": { "type": "Point", "coordinates": [ -5.4777, 57.242 ] } }
,
{ "type": "Feature", "properties": { "id": 352372, "latitude": 57.1575, "longitude": -5.9693, "Location": "Loch Eishort" }, "geometry": { "type": "Point", "coordinates": [ -5.9693, 57.1575 ] } }
,
{ "type": "Feature", "properties": { "id": 352379, "latitude": 56.0168, "longitude": -4.625, "Location": "Loch Lomond Youth Hostel" }, "geometry": { "type": "Point", "coordinates": [ -4.625, 56.0168 ] } }
,
{ "type": "Feature", "properties": { "id": 352380, "latitude": 56.1351, "longitude": -4.8214, "Location": "Loch Long" }, "geometry": { "type": "Point", "coordinates": [ -4.8214, 56.1351 ] } }
,
{ "type": "Feature", "properties": { "id": 352386, "latitude": 56.7662, "longitude": -4.6714, "Location": "Loch Ossian Youth Hostel" }, "geometry": { "type": "Point", "coordinates": [ -4.6714, 56.7662 ] } }
,
{ "type": "Feature", "properties": { "id": 352394, "latitude": 56.5117, "longitude": -6.2449, "Location": "Loch Tuath" }, "geometry": { "type": "Point", "coordinates": [ -6.2449, 56.5117 ] } }
,
{ "type": "Feature", "properties": { "id": 352395, "latitude": 56.3888, "longitude": -4.2848, "Location": "Lochearnhead" }, "geometry": { "type": "Point", "coordinates": [ -4.2848, 56.3888 ] } }
,
{ "type": "Feature", "properties": { "id": 352402, "latitude": 51.4863, "longitude": -2.5679, "Location": "Lockleaze" }, "geometry": { "type": "Point", "coordinates": [ -2.5679, 51.4863 ] } }
,
{ "type": "Feature", "properties": { "id": 352403, "latitude": 54.3016, "longitude": -0.6989, "Location": "Lockton Youth Hostel" }, "geometry": { "type": "Point", "coordinates": [ -0.6989, 54.3016 ] } }
,
{ "type": "Feature", "properties": { "id": 352404, "latitude": 50.324, "longitude": -3.8013, "Location": "Loddiswell" }, "geometry": { "type": "Point", "coordinates": [ -3.8013, 50.324 ] } }
,
{ "type": "Feature", "properties": { "id": 352408, "latitude": 54.7354, "longitude": -4.9573, "Location": "Logan Botanic Garden" }, "geometry": { "type": "Point", "coordinates": [ -4.9573, 54.7354 ] } }
,
{ "type": "Feature", "properties": { "id": 352410, "latitude": 50.9516, "longitude": 0.9454, "Location": "London Ashford Airport" }, "geometry": { "type": "Point", "coordinates": [ 0.9454, 50.9516 ] } }
,
{ "type": "Feature", "properties": { "id": 352414, "latitude": 51.1511, "longitude": -0.1768, "Location": "London Gatwick Airport" }, "geometry": { "type": "Point", "coordinates": [ -0.1768, 51.1511 ] } }
,
{ "type": "Feature", "properties": { "id": 352420, "latitude": 50.5771, "longitude": -4.8351, "Location": "Long Cross Victorian Gardens" }, "geometry": { "type": "Point", "coordinates": [ -4.8351, 50.5771 ] } }
,
{ "type": "Feature", "properties": { "id": 352422, "latitude": 52.0739, "longitude": 0.718, "Location": "Long Melford" }, "geometry": { "type": "Point", "coordinates": [ 0.718, 52.0739 ] } }
,
{ "type": "Feature", "properties": { "id": 352423, "latitude": 52.4871, "longitude": 1.239, "Location": "Long Stratton" }, "geometry": { "type": "Point", "coordinates": [ 1.239, 52.4871 ] } }
,
{ "type": "Feature", "properties": { "id": 352428, "latitude": 53.0454, "longitude": -2.2252, "Location": "Longbridge Hayes" }, "geometry": { "type": "Point", "coordinates": [ -2.2252, 53.0454 ] } }
,
{ "type": "Feature", "properties": { "id": 352430, "latitude": 50.7236, "longitude": -1.9777, "Location": "Longfleet" }, "geometry": { "type": "Point", "coordinates": [ -1.9777, 50.7236 ] } }
,
{ "type": "Feature", "properties": { "id": 352441, "latitude": 50.2867, "longitude": -4.8137, "Location": "Lost Gardens Of Heligan" }, "geometry": { "type": "Point", "coordinates": [ -4.8137, 50.2867 ] } }
,
{ "type": "Feature", "properties": { "id": 352445, "latitude": 55.6286, "longitude": -4.3794, "Location": "Loudon Castle Park" }, "geometry": { "type": "Point", "coordinates": [ -4.3794, 55.6286 ] } }
,
{ "type": "Feature", "properties": { "id": 352446, "latitude": 54.6132, "longitude": -6.4173, "Location": "Lough Neagh" }, "geometry": { "type": "Point", "coordinates": [ -6.4173, 54.6132 ] } }
,
{ "type": "Feature", "properties": { "id": 352453, "latitude": 54.9545, "longitude": -1.6271, "Location": "Low Team" }, "geometry": { "type": "Point", "coordinates": [ -1.6271, 54.9545 ] } }
,
{ "type": "Feature", "properties": { "id": 352459, "latitude": 52.3629, "longitude": -2.7087, "Location": "Ludlow Youth Hostel" }, "geometry": { "type": "Point", "coordinates": [ -2.7087, 52.3629 ] } }
,
{ "type": "Feature", "properties": { "id": 352461, "latitude": 50.6215, "longitude": -2.2412, "Location": "Lulworth Cove Youth Hostel" }, "geometry": { "type": "Point", "coordinates": [ -2.2412, 50.6215 ] } }
,
{ "type": "Feature", "properties": { "id": 352466, "latitude": 52.4556, "longitude": -1.1976, "Location": "Lutterworth" }, "geometry": { "type": "Point", "coordinates": [ -1.1976, 52.4556 ] } }
,
{ "type": "Feature", "properties": { "id": 352468, "latitude": 50.9507, "longitude": 0.909, "Location": "Lydd" }, "geometry": { "type": "Point", "coordinates": [ 0.909, 50.9507 ] } }
,
{ "type": "Feature", "properties": { "id": 352471, "latitude": 51.7256, "longitude": -2.544, "Location": "Lydney Park" }, "geometry": { "type": "Point", "coordinates": [ -2.544, 51.7256 ] } }
,
{ "type": "Feature", "properties": { "id": 352482, "latitude": 56.5057, "longitude": -5.6244, "Location": "Lynn Of Morven" }, "geometry": { "type": "Point", "coordinates": [ -5.6244, 56.5057 ] } }
,
{ "type": "Feature", "properties": { "id": 352485, "latitude": 53.7498, "longitude": -3.031, "Location": "Lytham St. Anne's" }, "geometry": { "type": "Point", "coordinates": [ -3.031, 53.7498 ] } }
,
{ "type": "Feature", "properties": { "id": 352490, "latitude": 51.5012, "longitude": -3.193, "Location": "Maendy" }, "geometry": { "type": "Point", "coordinates": [ -3.193, 51.5012 ] } }
,
{ "type": "Feature", "properties": { "id": 352492, "latitude": 51.6082, "longitude": -3.6592, "Location": "Maesteg" }, "geometry": { "type": "Point", "coordinates": [ -3.6592, 51.6082 ] } }
,
{ "type": "Feature", "properties": { "id": 352493, "latitude": 54.8441, "longitude": -6.6727, "Location": "Maghera" }, "geometry": { "type": "Point", "coordinates": [ -6.6727, 54.8441 ] } }
,
{ "type": "Feature", "properties": { "id": 350079, "latitude": 53.8632, "longitude": -1.5398, "Location": "Alwoodley" }, "geometry": { "type": "Point", "coordinates": [ -1.5398, 53.8632 ] } }
,
{ "type": "Feature", "properties": { "id": 350080, "latitude": 56.6259, "longitude": -3.2254, "Location": "Alyth" }, "geometry": { "type": "Point", "coordinates": [ -3.2254, 56.6259 ] } }
,
{ "type": "Feature", "properties": { "id": 350082, "latitude": 56.7428, "longitude": -4.9823, "Location": "Am Bodach" }, "geometry": { "type": "Point", "coordinates": [ -4.9823, 56.7428 ] } }
,
{ "type": "Feature", "properties": { "id": 350090, "latitude": 56.859, "longitude": -4.2929, "Location": "A'Mharconaich" }, "geometry": { "type": "Point", "coordinates": [ -4.2929, 56.859 ] } }
,
{ "type": "Feature", "properties": { "id": 350099, "latitude": 56.9345, "longitude": -3.7491, "Location": "An Sgarsoch" }, "geometry": { "type": "Point", "coordinates": [ -3.7491, 56.9345 ] } }
,
{ "type": "Feature", "properties": { "id": 350100, "latitude": 56.9055, "longitude": -3.51, "Location": "An Socach (Glen Ey)" }, "geometry": { "type": "Point", "coordinates": [ -3.51, 56.9055 ] } }
,
{ "type": "Feature", "properties": { "id": 350107, "latitude": 52.2377, "longitude": 0.2402, "Location": "Anglesey Abbey" }, "geometry": { "type": "Point", "coordinates": [ 0.2402, 52.2377 ] } }
,
{ "type": "Feature", "properties": { "id": 350114, "latitude": 54.7193, "longitude": -6.2069, "Location": "Antrim" }, "geometry": { "type": "Point", "coordinates": [ -6.2069, 54.7193 ] } }
,
{ "type": "Feature", "properties": { "id": 350118, "latitude": 56.8348, "longitude": -4.5266, "Location": "Aonach Beag (Highland)" }, "geometry": { "type": "Point", "coordinates": [ -4.5266, 56.8348 ] } }
,
{ "type": "Feature", "properties": { "id": 350121, "latitude": 53.8338, "longitude": -1.7086, "Location": "Apperley Bridge" }, "geometry": { "type": "Point", "coordinates": [ -1.7086, 53.8338 ] } }
,
{ "type": "Feature", "properties": { "id": 350123, "latitude": 50.9859, "longitude": -3.3237, "Location": "Appley" }, "geometry": { "type": "Point", "coordinates": [ -3.3237, 50.9859 ] } }
,
{ "type": "Feature", "properties": { "id": 350125, "latitude": 56.8664, "longitude": -2.3333, "Location": "Arbuthnott House" }, "geometry": { "type": "Point", "coordinates": [ -2.3333, 56.8664 ] } }
,
{ "type": "Feature", "properties": { "id": 350131, "latitude": 56.0226, "longitude": -5.778, "Location": "Ardlussa" }, "geometry": { "type": "Point", "coordinates": [ -5.778, 56.0226 ] } }
,
{ "type": "Feature", "properties": { "id": 350139, "latitude": 51.1445, "longitude": -3.9894, "Location": "Arlington Court" }, "geometry": { "type": "Point", "coordinates": [ -3.9894, 51.1445 ] } }
,
{ "type": "Feature", "properties": { "id": 350145, "latitude": 53.5369, "longitude": -1.0512, "Location": "Armthorpe" }, "geometry": { "type": "Point", "coordinates": [ -1.0512, 53.5369 ] } }
,
{ "type": "Feature", "properties": { "id": 350147, "latitude": 51.439, "longitude": -2.5613, "Location": "Arno's Vale" }, "geometry": { "type": "Point", "coordinates": [ -2.5613, 51.439 ] } }
,
{ "type": "Feature", "properties": { "id": 350151, "latitude": 50.8547, "longitude": -0.5536, "Location": "Arundel" }, "geometry": { "type": "Point", "coordinates": [ -0.5536, 50.8547 ] } }
,
{ "type": "Feature", "properties": { "id": 350155, "latitude": 53.0163, "longitude": -1.7307, "Location": "Ashbourne" }, "geometry": { "type": "Point", "coordinates": [ -1.7307, 53.0163 ] } }
,
{ "type": "Feature", "properties": { "id": 350156, "latitude": 50.5153, "longitude": -3.7502, "Location": "Ashburton" }, "geometry": { "type": "Point", "coordinates": [ -3.7502, 50.5153 ] } }
,
{ "type": "Feature", "properties": { "id": 350157, "latitude": 52.7489, "longitude": -1.4671, "Location": "Ashby De La Zouch" }, "geometry": { "type": "Point", "coordinates": [ -1.4671, 52.7489 ] } }
,
{ "type": "Feature", "properties": { "id": 350161, "latitude": 53.4867, "longitude": -2.6412, "Location": "Ashton-In-Makerfield" }, "geometry": { "type": "Point", "coordinates": [ -2.6412, 53.4867 ] } }
,
{ "type": "Feature", "properties": { "id": 350167, "latitude": 53.6064, "longitude": -2.428, "Location": "Astley Bridge" }, "geometry": { "type": "Point", "coordinates": [ -2.428, 53.6064 ] } }
,
{ "type": "Feature", "properties": { "id": 350169, "latitude": 52.5095, "longitude": -1.8838, "Location": "Aston Villa F.C." }, "geometry": { "type": "Point", "coordinates": [ -1.8838, 52.5095 ] } }
,
{ "type": "Feature", "properties": { "id": 350170, "latitude": 52.5763, "longitude": -1.5423, "Location": "Atherstone" }, "geometry": { "type": "Point", "coordinates": [ -1.5423, 52.5763 ] } }
,
{ "type": "Feature", "properties": { "id": 350173, "latitude": 52.584, "longitude": -1.4811, "Location": "Atterton" }, "geometry": { "type": "Point", "coordinates": [ -1.4811, 52.584 ] } }
,
{ "type": "Feature", "properties": { "id": 350179, "latitude": 54.4286, "longitude": -7.1312, "Location": "Augher" }, "geometry": { "type": "Point", "coordinates": [ -7.1312, 54.4286 ] } }
,
{ "type": "Feature", "properties": { "id": 350183, "latitude": 51.429, "longitude": -1.8495, "Location": "Avebury" }, "geometry": { "type": "Point", "coordinates": [ -1.8495, 51.429 ] } }
,
{ "type": "Feature", "properties": { "id": 350187, "latitude": 51.326, "longitude": -2.8093, "Location": "Avon Ski Centre" }, "geometry": { "type": "Point", "coordinates": [ -2.8093, 51.326 ] } }
,
{ "type": "Feature", "properties": { "id": 350193, "latitude": 55.465, "longitude": -4.6073, "Location": "Ayr Racecourse" }, "geometry": { "type": "Point", "coordinates": [ -4.6073, 55.465 ] } }
,
{ "type": "Feature", "properties": { "id": 350207, "latitude": 53.9562, "longitude": -0.531, "Location": "Bainton" }, "geometry": { "type": "Point", "coordinates": [ -0.531, 53.9562 ] } }
,
{ "type": "Feature", "properties": { "id": 350212, "latitude": 51.9888, "longitude": -0.1877, "Location": "Baldock" }, "geometry": { "type": "Point", "coordinates": [ -0.1877, 51.9888 ] } }
,
{ "type": "Feature", "properties": { "id": 350217, "latitude": 57.0539, "longitude": -3.0424, "Location": "Ballater Ski Slope" }, "geometry": { "type": "Point", "coordinates": [ -3.0424, 57.0539 ] } }
,
{ "type": "Feature", "properties": { "id": 350222, "latitude": 54.8635, "longitude": -6.2777, "Location": "Ballymena" }, "geometry": { "type": "Point", "coordinates": [ -6.2777, 54.8635 ] } }
,
{ "type": "Feature", "properties": { "id": 352496, "latitude": 54.5133, "longitude": -6.5773, "Location": "Maghery Country Park" }, "geometry": { "type": "Point", "coordinates": [ -6.5773, 54.5133 ] } }
,
{ "type": "Feature", "properties": { "id": 352498, "latitude": 54.0619, "longitude": -2.1458, "Location": "Malham Youth Hostel" }, "geometry": { "type": "Point", "coordinates": [ -2.1458, 54.0619 ] } }
,
{ "type": "Feature", "properties": { "id": 352501, "latitude": 52.5958, "longitude": -1.3389, "Location": "Mallory Park" }, "geometry": { "type": "Point", "coordinates": [ -1.3389, 52.5958 ] } }
,
{ "type": "Feature", "properties": { "id": 352504, "latitude": 53.4224, "longitude": -1.1996, "Location": "Maltby" }, "geometry": { "type": "Point", "coordinates": [ -1.1996, 53.4224 ] } }
,
{ "type": "Feature", "properties": { "id": 352508, "latitude": 53.3577, "longitude": -2.2668, "Location": "Manchester Airport" }, "geometry": { "type": "Point", "coordinates": [ -2.2668, 53.3577 ] } }
,
{ "type": "Feature", "properties": { "id": 352509, "latitude": 53.4835, "longitude": -2.2041, "Location": "Manchester City F.C." }, "geometry": { "type": "Point", "coordinates": [ -2.2041, 53.4835 ] } }
,
{ "type": "Feature", "properties": { "id": 352512, "latitude": 52.5565, "longitude": -1.8229, "Location": "Maney" }, "geometry": { "type": "Point", "coordinates": [ -1.8229, 52.5565 ] } }
,
{ "type": "Feature", "properties": { "id": 352513, "latitude": 51.485, "longitude": -2.5113, "Location": "Mangotsfield" }, "geometry": { "type": "Point", "coordinates": [ -2.5113, 51.485 ] } }
,
{ "type": "Feature", "properties": { "id": 352514, "latitude": 53.7101, "longitude": -2.0591, "Location": "Mankinholes Youth Hostel" }, "geometry": { "type": "Point", "coordinates": [ -2.0591, 53.7101 ] } }
,
{ "type": "Feature", "properties": { "id": 352530, "latitude": 52.5514, "longitude": 0.0903, "Location": "March" }, "geometry": { "type": "Point", "coordinates": [ 0.0903, 52.5514 ] } }
,
{ "type": "Feature", "properties": { "id": 352534, "latitude": 52.6231, "longitude": -1.4063, "Location": "Market Bosworth" }, "geometry": { "type": "Point", "coordinates": [ -1.4063, 52.6231 ] } }
,
{ "type": "Feature", "properties": { "id": 352547, "latitude": 53.3971, "longitude": -2.0602, "Location": "Marple" }, "geometry": { "type": "Point", "coordinates": [ -2.0602, 53.3971 ] } }
,
{ "type": "Feature", "properties": { "id": 352556, "latitude": 51.1158, "longitude": -4.0827, "Location": "Marwood Hill Gardens" }, "geometry": { "type": "Point", "coordinates": [ -4.0827, 51.1158 ] } }
,
{ "type": "Feature", "properties": { "id": 352559, "latitude": 54.7143, "longitude": -3.4936, "Location": "Maryport" }, "geometry": { "type": "Point", "coordinates": [ -3.4936, 54.7143 ] } }
,
{ "type": "Feature", "properties": { "id": 352560, "latitude": 54.2232, "longitude": -1.6542, "Location": "Masham" }, "geometry": { "type": "Point", "coordinates": [ -1.6542, 54.2232 ] } }
,
{ "type": "Feature", "properties": { "id": 352568, "latitude": 53.0246, "longitude": -2.2147, "Location": "May Bank" }, "geometry": { "type": "Point", "coordinates": [ -2.2147, 53.0246 ] } }
,
{ "type": "Feature", "properties": { "id": 352577, "latitude": 56.5666, "longitude": -4.2587, "Location": "Meall A' Choire Leith" }, "geometry": { "type": "Point", "coordinates": [ -4.2587, 56.5666 ] } }
,
{ "type": "Feature", "properties": { "id": 352581, "latitude": 56.9616, "longitude": -4.112, "Location": "Meall Chuaich" }, "geometry": { "type": "Point", "coordinates": [ -4.112, 56.9616 ] } }
,
{ "type": "Feature", "properties": { "id": 352585, "latitude": 56.635, "longitude": -4.198, "Location": "Meall Garbh (968m)" }, "geometry": { "type": "Point", "coordinates": [ -4.198, 56.635 ] } }
,
{ "type": "Feature", "properties": { "id": 352591, "latitude": 56.9895, "longitude": -4.928, "Location": "Meall Na Teanga" }, "geometry": { "type": "Point", "coordinates": [ -4.928, 56.9895 ] } }
,
{ "type": "Feature", "properties": { "id": 352597, "latitude": 53.1511, "longitude": -2.0236, "Location": "Meerbrook Youth Hostel" }, "geometry": { "type": "Point", "coordinates": [ -2.0236, 53.1511 ] } }
,
{ "type": "Feature", "properties": { "id": 352600, "latitude": 52.9772, "longitude": -2.1014, "Location": "Meir" }, "geometry": { "type": "Point", "coordinates": [ -2.1014, 52.9772 ] } }
,
{ "type": "Feature", "properties": { "id": 352605, "latitude": 55.5986, "longitude": -2.7204, "Location": "Melrose" }, "geometry": { "type": "Point", "coordinates": [ -2.7204, 55.5986 ] } }
,
{ "type": "Feature", "properties": { "id": 352609, "latitude": 53.1593, "longitude": -4.2664, "Location": "Menai Strait" }, "geometry": { "type": "Point", "coordinates": [ -4.2664, 53.1593 ] } }
,
{ "type": "Feature", "properties": { "id": 352617, "latitude": 53.4928, "longitude": -1.2789, "Location": "Mexborough" }, "geometry": { "type": "Point", "coordinates": [ -1.2789, 53.4928 ] } }
,
{ "type": "Feature", "properties": { "id": 352620, "latitude": 60.6004, "longitude": -1.0664, "Location": "Mid Yell" }, "geometry": { "type": "Point", "coordinates": [ -1.0664, 60.6004 ] } }
,
{ "type": "Feature", "properties": { "id": 352625, "latitude": 53.7477, "longitude": -1.5239, "Location": "Middleton (West Yorkshire)" }, "geometry": { "type": "Point", "coordinates": [ -1.5239, 53.7477 ] } }
,
{ "type": "Feature", "properties": { "id": 352630, "latitude": 55.8812, "longitude": -3.2168, "Location": "Midlothian Ski Centre" }, "geometry": { "type": "Point", "coordinates": [ -3.2168, 55.8812 ] } }
,
{ "type": "Feature", "properties": { "id": 352636, "latitude": 55.2112, "longitude": -6.5227, "Location": "Mill Rest Youth Hostel" }, "geometry": { "type": "Point", "coordinates": [ -6.5227, 55.2112 ] } }
,
{ "type": "Feature", "properties": { "id": 352637, "latitude": 53.4909, "longitude": -2.0305, "Location": "Millbrook (Greater Manchester)" }, "geometry": { "type": "Point", "coordinates": [ -2.0305, 53.4909 ] } }
,
{ "type": "Feature", "properties": { "id": 352638, "latitude": 50.9158, "longitude": -1.4484, "Location": "Millbrook (Southampton)" }, "geometry": { "type": "Point", "coordinates": [ -1.4484, 50.9158 ] } }
,
{ "type": "Feature", "properties": { "id": 350232, "latitude": 53.2271, "longitude": -4.128, "Location": "Bangor (Gwynedd)" }, "geometry": { "type": "Point", "coordinates": [ -4.128, 53.2271 ] } }
,
{ "type": "Feature", "properties": { "id": 350234, "latitude": 54.6509, "longitude": -5.6662, "Location": "Bangor Castle" }, "geometry": { "type": "Point", "coordinates": [ -5.6662, 54.6509 ] } }
,
{ "type": "Feature", "properties": { "id": 350235, "latitude": 53.2292, "longitude": -4.1134, "Location": "Bangor Youth Hostel" }, "geometry": { "type": "Point", "coordinates": [ -4.1134, 53.2292 ] } }
,
{ "type": "Feature", "properties": { "id": 350239, "latitude": 56.0918, "longitude": -3.907, "Location": "Bannockburn" }, "geometry": { "type": "Point", "coordinates": [ -3.907, 56.0918 ] } }
,
{ "type": "Feature", "properties": { "id": 350242, "latitude": 53.5118, "longitude": -2.1071, "Location": "Bardsley" }, "geometry": { "type": "Point", "coordinates": [ -2.1071, 53.5118 ] } }
,
{ "type": "Feature", "properties": { "id": 350243, "latitude": 55.2651, "longitude": -4.7462, "Location": "Bargany Gardens" }, "geometry": { "type": "Point", "coordinates": [ -4.7462, 55.2651 ] } }
,
{ "type": "Feature", "properties": { "id": 350244, "latitude": 51.6845, "longitude": -3.2284, "Location": "Bargoed" }, "geometry": { "type": "Point", "coordinates": [ -3.2284, 51.6845 ] } }
,
{ "type": "Feature", "properties": { "id": 350246, "latitude": 52.0272, "longitude": 0.0368, "Location": "Barley" }, "geometry": { "type": "Point", "coordinates": [ 0.0368, 52.0272 ] } }
,
{ "type": "Feature", "properties": { "id": 350249, "latitude": 54.5451, "longitude": -1.9222, "Location": "Barnard Castle" }, "geometry": { "type": "Point", "coordinates": [ -1.9222, 54.5451 ] } }
,
{ "type": "Feature", "properties": { "id": 350259, "latitude": 52.084, "longitude": 0.3116, "Location": "Bartlow" }, "geometry": { "type": "Point", "coordinates": [ 0.3116, 52.084 ] } }
,
{ "type": "Feature", "properties": { "id": 350261, "latitude": 53.6864, "longitude": -0.4417, "Location": "Barton-Upon-Humber" }, "geometry": { "type": "Point", "coordinates": [ -0.4417, 53.6864 ] } }
,
{ "type": "Feature", "properties": { "id": 350267, "latitude": 51.3736, "longitude": -2.3412, "Location": "Bath Youth Hostel" }, "geometry": { "type": "Point", "coordinates": [ -2.3412, 51.3736 ] } }
,
{ "type": "Feature", "properties": { "id": 350269, "latitude": 53.7168, "longitude": -1.6336, "Location": "Batley" }, "geometry": { "type": "Point", "coordinates": [ -1.6336, 53.7168 ] } }
,
{ "type": "Feature", "properties": { "id": 350270, "latitude": 51.9996, "longitude": -1.7343, "Location": "Batsford Arboretum" }, "geometry": { "type": "Point", "coordinates": [ -1.7343, 51.9996 ] } }
,
{ "type": "Feature", "properties": { "id": 350271, "latitude": 55.821, "longitude": -4.276, "Location": "Battlefield" }, "geometry": { "type": "Point", "coordinates": [ -4.276, 55.821 ] } }
,
{ "type": "Feature", "properties": { "id": 350279, "latitude": 57.4836, "longitude": -4.459, "Location": "Beauly" }, "geometry": { "type": "Point", "coordinates": [ -4.459, 57.4836 ] } }
,
{ "type": "Feature", "properties": { "id": 350281, "latitude": 53.2656, "longitude": -4.0907, "Location": "Beaumaris" }, "geometry": { "type": "Point", "coordinates": [ -4.0907, 53.2656 ] } }
,
{ "type": "Feature", "properties": { "id": 350286, "latitude": 51.5145, "longitude": 0.0582, "Location": "Becton" }, "geometry": { "type": "Point", "coordinates": [ 0.0582, 51.5145 ] } }
,
{ "type": "Feature", "properties": { "id": 350290, "latitude": 51.0751, "longitude": 0.453, "Location": "Bedgebury" }, "geometry": { "type": "Point", "coordinates": [ 0.453, 51.0751 ] } }
,
{ "type": "Feature", "properties": { "id": 350292, "latitude": 50.8541, "longitude": -1.0025, "Location": "Bedhampton" }, "geometry": { "type": "Point", "coordinates": [ -1.0025, 50.8541 ] } }
,
{ "type": "Feature", "properties": { "id": 350296, "latitude": 52.481, "longitude": -1.4674, "Location": "Bedworth" }, "geometry": { "type": "Point", "coordinates": [ -1.4674, 52.481 ] } }
,
{ "type": "Feature", "properties": { "id": 350299, "latitude": 52.9236, "longitude": -1.2109, "Location": "Beeston (Nottinghamshire)" }, "geometry": { "type": "Point", "coordinates": [ -1.2109, 52.9236 ] } }
,
{ "type": "Feature", "properties": { "id": 350300, "latitude": 53.7738, "longitude": -1.5636, "Location": "Beeston (West Yorkshire)" }, "geometry": { "type": "Point", "coordinates": [ -1.5636, 53.7738 ] } }
,
{ "type": "Feature", "properties": { "id": 350310, "latitude": 56.3304, "longitude": -4.6039, "Location": "Beinn A' Chroin" }, "geometry": { "type": "Point", "coordinates": [ -4.6039, 56.3304 ] } }
,
{ "type": "Feature", "properties": { "id": 350313, "latitude": 56.8137, "longitude": -4.4284, "Location": "Beinn Bheoil" }, "geometry": { "type": "Point", "coordinates": [ -4.4284, 56.8137 ] } }
,
{ "type": "Feature", "properties": { "id": 350317, "latitude": 56.3252, "longitude": -4.6457, "Location": "Beinn Chabhair" }, "geometry": { "type": "Point", "coordinates": [ -4.6457, 56.3252 ] } }
,
{ "type": "Feature", "properties": { "id": 350323, "latitude": 56.4502, "longitude": -5.028, "Location": "Beinn Eunaich" }, "geometry": { "type": "Point", "coordinates": [ -5.028, 56.4502 ] } }
,
{ "type": "Feature", "properties": { "id": 350330, "latitude": 56.8941, "longitude": -3.5628, "Location": "Beinn Iutharn Mhor" }, "geometry": { "type": "Point", "coordinates": [ -3.5628, 56.8941 ] } }
,
{ "type": "Feature", "properties": { "id": 350331, "latitude": 57.5163, "longitude": -5.4006, "Location": "Beinn Liath Mhor" }, "geometry": { "type": "Point", "coordinates": [ -5.4006, 57.5163 ] } }
,
{ "type": "Feature", "properties": { "id": 350332, "latitude": 57.7059, "longitude": -4.9857, "Location": "Beinn Liath Mhor Fannaich" }, "geometry": { "type": "Point", "coordinates": [ -4.9857, 57.7059 ] } }
,
{ "type": "Feature", "properties": { "id": 350336, "latitude": 56.519, "longitude": -5.0127, "Location": "Beinn Nan Aighenan" }, "geometry": { "type": "Point", "coordinates": [ -5.0127, 56.519 ] } }
,
{ "type": "Feature", "properties": { "id": 350337, "latitude": 56.2207, "longitude": -4.7853, "Location": "Beinn Narnain" }, "geometry": { "type": "Point", "coordinates": [ -4.7853, 56.2207 ] } }
,
{ "type": "Feature", "properties": { "id": 350350, "latitude": 52.6576, "longitude": -1.1204, "Location": "Belgrave" }, "geometry": { "type": "Point", "coordinates": [ -1.1204, 52.6576 ] } }
,
{ "type": "Feature", "properties": { "id": 350351, "latitude": 56.001, "longitude": -2.549, "Location": "Belhaven Bay" }, "geometry": { "type": "Point", "coordinates": [ -2.549, 56.001 ] } }
,
{ "type": "Feature", "properties": { "id": 350354, "latitude": 53.7632, "longitude": -1.5234, "Location": "Belle Isle" }, "geometry": { "type": "Point", "coordinates": [ -1.5234, 53.7632 ] } }
,
{ "type": "Feature", "properties": { "id": 350356, "latitude": 50.5768, "longitude": -3.903, "Location": "Bellever Youth Hostel" }, "geometry": { "type": "Point", "coordinates": [ -3.903, 50.5768 ] } }
,
{ "type": "Feature", "properties": { "id": 350369, "latitude": 58.4136, "longitude": -4.6049, "Location": "Ben Hope" }, "geometry": { "type": "Point", "coordinates": [ -4.6049, 58.4136 ] } }
,
{ "type": "Feature", "properties": { "id": 350375, "latitude": 56.3877, "longitude": -4.5399, "Location": "Ben More (Stirling)" }, "geometry": { "type": "Point", "coordinates": [ -4.5399, 56.3877 ] } }
,
{ "type": "Feature", "properties": { "id": 350379, "latitude": 56.5365, "longitude": -5.0492, "Location": "Ben Starav" }, "geometry": { "type": "Point", "coordinates": [ -5.0492, 56.5365 ] } }
,
{ "type": "Feature", "properties": { "id": 352651, "latitude": 51.2038, "longitude": -3.4799, "Location": "Minehead" }, "geometry": { "type": "Point", "coordinates": [ -3.4799, 51.2038 ] } }
,
{ "type": "Feature", "properties": { "id": 352652, "latitude": 51.1918, "longitude": -3.474, "Location": "Minehead Youth Hostel" }, "geometry": { "type": "Point", "coordinates": [ -3.474, 51.1918 ] } }
,
{ "type": "Feature", "properties": { "id": 352653, "latitude": 54.9647, "longitude": -4.4696, "Location": "Minnigaff Youth Hostel" }, "geometry": { "type": "Point", "coordinates": [ -4.4696, 54.9647 ] } }
,
{ "type": "Feature", "properties": { "id": 352657, "latitude": 53.6799, "longitude": -1.6952, "Location": "Mirfield" }, "geometry": { "type": "Point", "coordinates": [ -1.6952, 53.6799 ] } }
,
{ "type": "Feature", "properties": { "id": 352667, "latitude": 50.9509, "longitude": -2.7108, "Location": "Montacute House" }, "geometry": { "type": "Point", "coordinates": [ -2.7108, 50.9509 ] } }
,
{ "type": "Feature", "properties": { "id": 352670, "latitude": 53.8321, "longitude": -1.7955, "Location": "Moor Head" }, "geometry": { "type": "Point", "coordinates": [ -1.7955, 53.8321 ] } }
,
{ "type": "Feature", "properties": { "id": 352671, "latitude": 53.7504, "longitude": -1.7659, "Location": "Moor Side" }, "geometry": { "type": "Point", "coordinates": [ -1.7659, 53.7504 ] } }
,
{ "type": "Feature", "properties": { "id": 352675, "latitude": 57.6067, "longitude": -3.0921, "Location": "Moray Monster Trails Mountain Bike Trail Centre" }, "geometry": { "type": "Point", "coordinates": [ -3.0921, 57.6067 ] } }
,
{ "type": "Feature", "properties": { "id": 352678, "latitude": 54.074, "longitude": -2.8636, "Location": "Morecambe" }, "geometry": { "type": "Point", "coordinates": [ -2.8636, 54.074 ] } }
,
{ "type": "Feature", "properties": { "id": 352679, "latitude": 55.9105, "longitude": -3.1272, "Location": "Moredun" }, "geometry": { "type": "Point", "coordinates": [ -3.1272, 55.9105 ] } }
,
{ "type": "Feature", "properties": { "id": 352680, "latitude": 53.4003, "longitude": -3.1098, "Location": "Moreton" }, "geometry": { "type": "Point", "coordinates": [ -3.1098, 53.4003 ] } }
,
{ "type": "Feature", "properties": { "id": 352683, "latitude": 53.7443, "longitude": -1.5965, "Location": "Morley" }, "geometry": { "type": "Point", "coordinates": [ -1.5965, 53.7443 ] } }
,
{ "type": "Feature", "properties": { "id": 352685, "latitude": 55.1687, "longitude": -1.6859, "Location": "Morpeth" }, "geometry": { "type": "Point", "coordinates": [ -1.6859, 55.1687 ] } }
,
{ "type": "Feature", "properties": { "id": 352687, "latitude": 53.3272, "longitude": -1.3596, "Location": "Mosborough" }, "geometry": { "type": "Point", "coordinates": [ -1.3596, 53.3272 ] } }
,
{ "type": "Feature", "properties": { "id": 352691, "latitude": 53.557, "longitude": -2.4011, "Location": "Moses Gate" }, "geometry": { "type": "Point", "coordinates": [ -2.4011, 53.557 ] } }
,
{ "type": "Feature", "properties": { "id": 352697, "latitude": 51.0254, "longitude": -2.2133, "Location": "Motcombe" }, "geometry": { "type": "Point", "coordinates": [ -2.2133, 51.0254 ] } }
,
{ "type": "Feature", "properties": { "id": 352704, "latitude": 51.6812, "longitude": -3.3719, "Location": "Mountain Ash" }, "geometry": { "type": "Point", "coordinates": [ -3.3719, 51.6812 ] } }
,
{ "type": "Feature", "properties": { "id": 352708, "latitude": 51.536, "longitude": 0.7396, "Location": "Mr. B's Amusements Southend-On-Sea" }, "geometry": { "type": "Point", "coordinates": [ 0.7396, 51.536 ] } }
,
{ "type": "Feature", "properties": { "id": 352715, "latitude": 55.5234, "longitude": -4.0651, "Location": "Muirkirk" }, "geometry": { "type": "Point", "coordinates": [ -4.0651, 55.5234 ] } }
,
{ "type": "Feature", "properties": { "id": 352720, "latitude": 57.2848, "longitude": -5.1855, "Location": "Mullach Na Dheiragain" }, "geometry": { "type": "Point", "coordinates": [ -5.1855, 57.2848 ] } }
,
{ "type": "Feature", "properties": { "id": 352728, "latitude": 50.761, "longitude": -1.8642, "Location": "Muscliff" }, "geometry": { "type": "Point", "coordinates": [ -1.8642, 50.761 ] } }
,
{ "type": "Feature", "properties": { "id": 352739, "latitude": 53.0669, "longitude": -2.5227, "Location": "Nantwich" }, "geometry": { "type": "Point", "coordinates": [ -2.5227, 53.0669 ] } }
,
{ "type": "Feature", "properties": { "id": 352754, "latitude": 53.6696, "longitude": -1.7975, "Location": "Netheroyd Hill" }, "geometry": { "type": "Point", "coordinates": [ -1.7975, 53.6696 ] } }
,
{ "type": "Feature", "properties": { "id": 352758, "latitude": 51.3494, "longitude": -0.0142, "Location": "New Addington" }, "geometry": { "type": "Point", "coordinates": [ -0.0142, 51.3494 ] } }
,
{ "type": "Feature", "properties": { "id": 352760, "latitude": 53.1032, "longitude": -0.044, "Location": "New Bolingbroke" }, "geometry": { "type": "Point", "coordinates": [ -0.044, 53.1032 ] } }
,
{ "type": "Feature", "properties": { "id": 352762, "latitude": 53.4379, "longitude": -3.0421, "Location": "New Brighton (Merseyside)" }, "geometry": { "type": "Point", "coordinates": [ -3.0421, 53.4379 ] } }
,
{ "type": "Feature", "properties": { "id": 352769, "latitude": 53.3616, "longitude": -1.9993, "Location": "New Mills" }, "geometry": { "type": "Point", "coordinates": [ -1.9993, 53.3616 ] } }
,
{ "type": "Feature", "properties": { "id": 352772, "latitude": 53.2081, "longitude": -1.0107, "Location": "New Ollerton" }, "geometry": { "type": "Point", "coordinates": [ -1.0107, 53.2081 ] } }
,
{ "type": "Feature", "properties": { "id": 352773, "latitude": 53.4398, "longitude": -3.0539, "Location": "New Palace And Adventureland New Brighton" }, "geometry": { "type": "Point", "coordinates": [ -3.0539, 53.4398 ] } }
,
{ "type": "Feature", "properties": { "id": 352774, "latitude": 52.6465, "longitude": -1.1781, "Location": "New Parks" }, "geometry": { "type": "Point", "coordinates": [ -1.1781, 52.6465 ] } }
,
{ "type": "Feature", "properties": { "id": 352776, "latitude": 52.2152, "longitude": -4.3579, "Location": "New Quay" }, "geometry": { "type": "Point", "coordinates": [ -4.3579, 52.2152 ] } }
,
{ "type": "Feature", "properties": { "id": 352779, "latitude": 51.8452, "longitude": 1.2765, "Location": "New Walton Pier" }, "geometry": { "type": "Point", "coordinates": [ 1.2765, 51.8452 ] } }
,
{ "type": "Feature", "properties": { "id": 352783, "latitude": 51.6648, "longitude": -3.1428, "Location": "Newbridge" }, "geometry": { "type": "Point", "coordinates": [ -3.1428, 51.6648 ] } }
,
{ "type": "Feature", "properties": { "id": 350380, "latitude": 56.2497, "longitude": -4.778, "Location": "Ben Vane" }, "geometry": { "type": "Point", "coordinates": [ -4.778, 56.2497 ] } }
,
{ "type": "Feature", "properties": { "id": 350381, "latitude": 56.2746, "longitude": -4.7515, "Location": "Ben Vorlich (Argyll & Bute)" }, "geometry": { "type": "Point", "coordinates": [ -4.7515, 56.2746 ] } }
,
{ "type": "Feature", "properties": { "id": 350384, "latitude": 54.0202, "longitude": -1.2117, "Location": "Beningbrough Hall" }, "geometry": { "type": "Point", "coordinates": [ -1.2117, 54.0202 ] } }
,
{ "type": "Feature", "properties": { "id": 350389, "latitude": 53.5441, "longitude": -1.1446, "Location": "Bentley (South Yorkshire)" }, "geometry": { "type": "Point", "coordinates": [ -1.1446, 53.5441 ] } }
,
{ "type": "Feature", "properties": { "id": 350390, "latitude": 52.5854, "longitude": -2.0222, "Location": "Bentley (West Midlands)" }, "geometry": { "type": "Point", "coordinates": [ -2.0222, 52.5854 ] } }
,
{ "type": "Feature", "properties": { "id": 350393, "latitude": 53.3551, "longitude": -1.5277, "Location": "Bents Green" }, "geometry": { "type": "Point", "coordinates": [ -1.5277, 53.3551 ] } }
,
{ "type": "Feature", "properties": { "id": 350399, "latitude": 57.7196, "longitude": -7.1577, "Location": "Berneray Youth Hostel" }, "geometry": { "type": "Point", "coordinates": [ -7.1577, 57.7196 ] } }
,
{ "type": "Feature", "properties": { "id": 350406, "latitude": 51.1288, "longitude": 0.7557, "Location": "Bethersden" }, "geometry": { "type": "Point", "coordinates": [ 0.7557, 51.1288 ] } }
,
{ "type": "Feature", "properties": { "id": 350407, "latitude": 53.1787, "longitude": -4.0576, "Location": "Bethesda" }, "geometry": { "type": "Point", "coordinates": [ -4.0576, 53.1787 ] } }
,
{ "type": "Feature", "properties": { "id": 350410, "latitude": 53.8498, "longitude": -0.4576, "Location": "Beverley Racecourse" }, "geometry": { "type": "Point", "coordinates": [ -0.4576, 53.8498 ] } }
,
{ "type": "Feature", "properties": { "id": 350413, "latitude": 51.4414, "longitude": 0.1487, "Location": "Bexley" }, "geometry": { "type": "Point", "coordinates": [ 0.1487, 51.4414 ] } }
,
{ "type": "Feature", "properties": { "id": 350417, "latitude": 53.1189, "longitude": -2.1702, "Location": "Biddulph" }, "geometry": { "type": "Point", "coordinates": [ -2.1702, 53.1189 ] } }
,
{ "type": "Feature", "properties": { "id": 350418, "latitude": 53.1296, "longitude": -2.1595, "Location": "Biddulph Grange Gardens" }, "geometry": { "type": "Point", "coordinates": [ -2.1595, 53.1296 ] } }
,
{ "type": "Feature", "properties": { "id": 350426, "latitude": 51.3116, "longitude": 0.0344, "Location": "Biggin Hill" }, "geometry": { "type": "Point", "coordinates": [ 0.0344, 51.3116 ] } }
,
{ "type": "Feature", "properties": { "id": 350431, "latitude": 51.0224, "longitude": -0.4499, "Location": "Billingshurst" }, "geometry": { "type": "Point", "coordinates": [ -0.4499, 51.0224 ] } }
,
{ "type": "Feature", "properties": { "id": 350433, "latitude": 53.4282, "longitude": -0.1786, "Location": "Binbrook" }, "geometry": { "type": "Point", "coordinates": [ -0.1786, 53.4282 ] } }
,
{ "type": "Feature", "properties": { "id": 350447, "latitude": 52.4533, "longitude": -1.7357, "Location": "Birmingham International Airport" }, "geometry": { "type": "Point", "coordinates": [ -1.7357, 52.4533 ] } }
,
{ "type": "Feature", "properties": { "id": 350450, "latitude": 53.7294, "longitude": -1.6611, "Location": "Birstall Smithies" }, "geometry": { "type": "Point", "coordinates": [ -1.6611, 53.7294 ] } }
,
{ "type": "Feature", "properties": { "id": 350453, "latitude": 51.5583, "longitude": -0.7758, "Location": "Bisham Abbey National Sports Centre" }, "geometry": { "type": "Point", "coordinates": [ -0.7758, 51.5583 ] } }
,
{ "type": "Feature", "properties": { "id": 350465, "latitude": 54.5011, "longitude": -3.2435, "Location": "Black Sail Youth Hostel" }, "geometry": { "type": "Point", "coordinates": [ -3.2435, 54.5011 ] } }
,
{ "type": "Feature", "properties": { "id": 350466, "latitude": 50.9703, "longitude": 0.1707, "Location": "Blackboys Youth Hostel" }, "geometry": { "type": "Point", "coordinates": [ 0.1707, 50.9703 ] } }
,
{ "type": "Feature", "properties": { "id": 350468, "latitude": 53.7294, "longitude": -2.4874, "Location": "Blackburn Rovers F.C." }, "geometry": { "type": "Point", "coordinates": [ -2.4874, 53.7294 ] } }
,
{ "type": "Feature", "properties": { "id": 350470, "latitude": 50.5821, "longitude": -1.3078, "Location": "Blackgang Chine" }, "geometry": { "type": "Point", "coordinates": [ -1.3078, 50.5821 ] } }
,
{ "type": "Feature", "properties": { "id": 350474, "latitude": 53.8056, "longitude": -3.0479, "Location": "Blackpool F.C." }, "geometry": { "type": "Point", "coordinates": [ -3.0479, 53.8056 ] } }
,
{ "type": "Feature", "properties": { "id": 350478, "latitude": 51.6677, "longitude": -3.1954, "Location": "Blackwood" }, "geometry": { "type": "Point", "coordinates": [ -3.1954, 51.6677 ] } }
,
{ "type": "Feature", "properties": { "id": 350483, "latitude": 56.055, "longitude": -4.7326, "Location": "Blairnairn" }, "geometry": { "type": "Point", "coordinates": [ -4.7326, 56.055 ] } }
,
{ "type": "Feature", "properties": { "id": 350484, "latitude": 54.9913, "longitude": -1.6567, "Location": "Blakelaw" }, "geometry": { "type": "Point", "coordinates": [ -1.6567, 54.9913 ] } }
,
{ "type": "Feature", "properties": { "id": 350489, "latitude": 55.7939, "longitude": -4.0936, "Location": "Blantyre" }, "geometry": { "type": "Point", "coordinates": [ -4.0936, 55.7939 ] } }
,
{ "type": "Feature", "properties": { "id": 350496, "latitude": 52.4029, "longitude": -1.8061, "Location": "Blossomfield" }, "geometry": { "type": "Point", "coordinates": [ -1.8061, 52.4029 ] } }
,
{ "type": "Feature", "properties": { "id": 350502, "latitude": 53.2327, "longitude": -3.7955, "Location": "Bodnant Gardens" }, "geometry": { "type": "Point", "coordinates": [ -3.7955, 53.2327 ] } }
,
{ "type": "Feature", "properties": { "id": 350512, "latitude": 56.0172, "longitude": -3.607, "Location": "Bo'Ness" }, "geometry": { "type": "Point", "coordinates": [ -3.607, 56.0172 ] } }
,
{ "type": "Feature", "properties": { "id": 350515, "latitude": 51.0239, "longitude": -0.1291, "Location": "Borde Hill Garden" }, "geometry": { "type": "Point", "coordinates": [ -0.1291, 51.0239 ] } }
,
{ "type": "Feature", "properties": { "id": 350518, "latitude": 54.5186, "longitude": -3.1494, "Location": "Borrowdale Youth Hostel" }, "geometry": { "type": "Point", "coordinates": [ -3.1494, 54.5186 ] } }
,
{ "type": "Feature", "properties": { "id": 350521, "latitude": 52.4963, "longitude": -4.0496, "Location": "Borth Youth Hostel" }, "geometry": { "type": "Point", "coordinates": [ -4.0496, 52.4963 ] } }
,
{ "type": "Feature", "properties": { "id": 350523, "latitude": 53.0329, "longitude": 0.2982, "Location": "Boston Deeps" }, "geometry": { "type": "Point", "coordinates": [ 0.2982, 53.0329 ] } }
,
{ "type": "Feature", "properties": { "id": 352791, "latitude": 55.0308, "longitude": -1.614, "Location": "Newcastle Racecourse" }, "geometry": { "type": "Point", "coordinates": [ -1.614, 55.0308 ] } }
,
{ "type": "Feature", "properties": { "id": 352799, "latitude": 51.0442, "longitude": 0.9309, "Location": "Newchurch" }, "geometry": { "type": "Point", "coordinates": [ 0.9309, 51.0442 ] } }
,
{ "type": "Feature", "properties": { "id": 352800, "latitude": 51.9289, "longitude": -2.4032, "Location": "Newent" }, "geometry": { "type": "Point", "coordinates": [ -2.4032, 51.9289 ] } }
,
{ "type": "Feature", "properties": { "id": 352801, "latitude": 51.8506, "longitude": -5.1279, "Location": "Newgale" }, "geometry": { "type": "Point", "coordinates": [ -5.1279, 51.8506 ] } }
,
{ "type": "Feature", "properties": { "id": 352808, "latitude": 52.4455, "longitude": -1.2899, "Location": "Newnham Paddox Art Park" }, "geometry": { "type": "Point", "coordinates": [ -1.2899, 52.4455 ] } }
,
{ "type": "Feature", "properties": { "id": 352815, "latitude": 56.4405, "longitude": -2.9392, "Location": "Newport-On-Tay" }, "geometry": { "type": "Point", "coordinates": [ -2.9392, 56.4405 ] } }
,
{ "type": "Feature", "properties": { "id": 352817, "latitude": 54.1707, "longitude": -6.3348, "Location": "Newry" }, "geometry": { "type": "Point", "coordinates": [ -6.3348, 54.1707 ] } }
,
{ "type": "Feature", "properties": { "id": 352818, "latitude": 53.0762, "longitude": -1.1839, "Location": "Newstead Abbey" }, "geometry": { "type": "Point", "coordinates": [ -1.1839, 53.0762 ] } }
,
{ "type": "Feature", "properties": { "id": 352823, "latitude": 50.5418, "longitude": -3.5927, "Location": "Newton Abbot Racecourse" }, "geometry": { "type": "Point", "coordinates": [ -3.5927, 50.5418 ] } }
,
{ "type": "Feature", "properties": { "id": 352825, "latitude": 53.4993, "longitude": -2.1832, "Location": "Newton Heath" }, "geometry": { "type": "Point", "coordinates": [ -2.1832, 53.4993 ] } }
,
{ "type": "Feature", "properties": { "id": 352843, "latitude": 53.6999, "longitude": -1.6914, "Location": "Norristhorpe" }, "geometry": { "type": "Point", "coordinates": [ -1.6914, 53.6999 ] } }
,
{ "type": "Feature", "properties": { "id": 352852, "latitude": 55.0107, "longitude": -1.4476, "Location": "North Shields" }, "geometry": { "type": "Point", "coordinates": [ -1.4476, 55.0107 ] } }
,
{ "type": "Feature", "properties": { "id": 352858, "latitude": 51.0394, "longitude": -4.212, "Location": "Northam" }, "geometry": { "type": "Point", "coordinates": [ -4.212, 51.0394 ] } }
,
{ "type": "Feature", "properties": { "id": 352859, "latitude": 51.6649, "longitude": 0.8379, "Location": "Northend" }, "geometry": { "type": "Point", "coordinates": [ 0.8379, 51.6649 ] } }
,
{ "type": "Feature", "properties": { "id": 352864, "latitude": 51.4406, "longitude": 0.3386, "Location": "Northfleet" }, "geometry": { "type": "Point", "coordinates": [ 0.3386, 51.4406 ] } }
,
{ "type": "Feature", "properties": { "id": 352866, "latitude": 52.9775, "longitude": -2.2196, "Location": "Northwood (Staffordshire)" }, "geometry": { "type": "Point", "coordinates": [ -2.2196, 52.9775 ] } }
,
{ "type": "Feature", "properties": { "id": 352868, "latitude": 54.1326, "longitude": -0.7817, "Location": "Norton (North Yorkshire)" }, "geometry": { "type": "Point", "coordinates": [ -0.7817, 54.1326 ] } }
,
{ "type": "Feature", "properties": { "id": 352869, "latitude": 53.3319, "longitude": -1.4673, "Location": "Norton (South Yorkshire)" }, "geometry": { "type": "Point", "coordinates": [ -1.4673, 53.3319 ] } }
,
{ "type": "Feature", "properties": { "id": 352871, "latitude": 54.18, "longitude": -1.5157, "Location": "Norton Conyers" }, "geometry": { "type": "Point", "coordinates": [ -1.5157, 54.18 ] } }
,
{ "type": "Feature", "properties": { "id": 352873, "latitude": 53.3428, "longitude": -1.4727, "Location": "Norton Woodseats" }, "geometry": { "type": "Point", "coordinates": [ -1.4727, 53.3428 ] } }
,
{ "type": "Feature", "properties": { "id": 352880, "latitude": 52.9444, "longitude": -1.1026, "Location": "Nottingham Racecourse" }, "geometry": { "type": "Point", "coordinates": [ -1.1026, 52.9444 ] } }
,
{ "type": "Feature", "properties": { "id": 352893, "latitude": 53.3937, "longitude": -2.1243, "Location": "Offerton" }, "geometry": { "type": "Point", "coordinates": [ -2.1243, 53.3937 ] } }
,
{ "type": "Feature", "properties": { "id": 352898, "latitude": 53.4566, "longitude": -2.286, "Location": "Old Trafford Lancashire C.C.C." }, "geometry": { "type": "Point", "coordinates": [ -2.286, 53.4566 ] } }
,
{ "type": "Feature", "properties": { "id": 352899, "latitude": 52.5046, "longitude": -2.0145, "Location": "Oldbury" }, "geometry": { "type": "Point", "coordinates": [ -2.0145, 52.5046 ] } }
,
{ "type": "Feature", "properties": { "id": 352901, "latitude": 55.8488, "longitude": -4.392, "Location": "Oldhall" }, "geometry": { "type": "Point", "coordinates": [ -4.392, 55.8488 ] } }
,
{ "type": "Feature", "properties": { "id": 352908, "latitude": 54.9915, "longitude": -2.3842, "Location": "Once Brewed Youth Hostel" }, "geometry": { "type": "Point", "coordinates": [ -2.3842, 54.9915 ] } }
,
{ "type": "Feature", "properties": { "id": 352915, "latitude": 53.7991, "longitude": -1.5096, "Location": "Osmondthorpe" }, "geometry": { "type": "Point", "coordinates": [ -1.5096, 53.7991 ] } }
,
{ "type": "Feature", "properties": { "id": 352917, "latitude": 53.6809, "longitude": -1.5774, "Location": "Ossett" }, "geometry": { "type": "Point", "coordinates": [ -1.5774, 53.6809 ] } }
,
{ "type": "Feature", "properties": { "id": 352921, "latitude": 53.9056, "longitude": -1.6903, "Location": "Otley" }, "geometry": { "type": "Point", "coordinates": [ -1.6903, 53.9056 ] } }
,
{ "type": "Feature", "properties": { "id": 352922, "latitude": 50.7521, "longitude": -3.2791, "Location": "Ottery St. Mary" }, "geometry": { "type": "Point", "coordinates": [ -3.2791, 50.7521 ] } }
,
{ "type": "Feature", "properties": { "id": 352925, "latitude": 60.4257, "longitude": -0.7467, "Location": "Out Skerries Airstrip" }, "geometry": { "type": "Point", "coordinates": [ -0.7467, 60.4257 ] } }
,
{ "type": "Feature", "properties": { "id": 352927, "latitude": 53.743, "longitude": -1.8764, "Location": "Ovenden" }, "geometry": { "type": "Point", "coordinates": [ -1.8764, 53.743 ] } }
,
{ "type": "Feature", "properties": { "id": 352933, "latitude": 51.7629, "longitude": -1.2295, "Location": "Oxford Youth Hostel" }, "geometry": { "type": "Point", "coordinates": [ -1.2295, 51.7629 ] } }
,
{ "type": "Feature", "properties": { "id": 352937, "latitude": 53.6477, "longitude": -1.8133, "Location": "Paddock" }, "geometry": { "type": "Point", "coordinates": [ -1.8133, 53.6477 ] } }
,
{ "type": "Feature", "properties": { "id": 350529, "latitude": 55.8062, "longitude": -4.0714, "Location": "Bothwell" }, "geometry": { "type": "Point", "coordinates": [ -4.0714, 55.8062 ] } }
,
{ "type": "Feature", "properties": { "id": 350530, "latitude": 50.9148, "longitude": -1.2692, "Location": "Botley" }, "geometry": { "type": "Point", "coordinates": [ -1.2692, 50.9148 ] } }
,
{ "type": "Feature", "properties": { "id": 350531, "latitude": 52.4234, "longitude": -0.6729, "Location": "Boughton House" }, "geometry": { "type": "Point", "coordinates": [ -0.6729, 52.4234 ] } }
,
{ "type": "Feature", "properties": { "id": 350539, "latitude": 53.378, "longitude": -2.3655, "Location": "Bowgreen" }, "geometry": { "type": "Point", "coordinates": [ -2.3655, 53.378 ] } }
,
{ "type": "Feature", "properties": { "id": 350543, "latitude": 51.4272, "longitude": -2.0377, "Location": "Bowood House & Gardens" }, "geometry": { "type": "Point", "coordinates": [ -2.0377, 51.4272 ] } }
,
{ "type": "Feature", "properties": { "id": 350544, "latitude": 51.757, "longitude": 0.3874, "Location": "Boyton Cross" }, "geometry": { "type": "Point", "coordinates": [ 0.3874, 51.757 ] } }
,
{ "type": "Feature", "properties": { "id": 350545, "latitude": 57.3603, "longitude": -6.4055, "Location": "Bracadale" }, "geometry": { "type": "Point", "coordinates": [ -6.4055, 57.3603 ] } }
,
{ "type": "Feature", "properties": { "id": 350548, "latitude": 51.4142, "longitude": -0.7821, "Location": "Bracknell Ski & Snowboard Centre" }, "geometry": { "type": "Point", "coordinates": [ -0.7821, 51.4142 ] } }
,
{ "type": "Feature", "properties": { "id": 350549, "latitude": 53.0594, "longitude": -2.1736, "Location": "Bradeley" }, "geometry": { "type": "Point", "coordinates": [ -2.1736, 53.0594 ] } }
,
{ "type": "Feature", "properties": { "id": 350550, "latitude": 52.6396, "longitude": 0.8458, "Location": "Bradenham" }, "geometry": { "type": "Point", "coordinates": [ 0.8458, 52.6396 ] } }
,
{ "type": "Feature", "properties": { "id": 350553, "latitude": 53.4329, "longitude": -1.3743, "Location": "Bradgate" }, "geometry": { "type": "Point", "coordinates": [ -1.3743, 53.4329 ] } }
,
{ "type": "Feature", "properties": { "id": 350554, "latitude": 53.5745, "longitude": -2.3679, "Location": "Bradley Fold" }, "geometry": { "type": "Point", "coordinates": [ -2.3679, 53.5745 ] } }
,
{ "type": "Feature", "properties": { "id": 350560, "latitude": 57.0749, "longitude": -3.7288, "Location": "Braeriach" }, "geometry": { "type": "Point", "coordinates": [ -3.7288, 57.0749 ] } }
,
{ "type": "Feature", "properties": { "id": 350562, "latitude": 56.8332, "longitude": -3.7263, "Location": "Braigh Coire Chruinn-Bhalgain" }, "geometry": { "type": "Point", "coordinates": [ -3.7263, 56.8332 ] } }
,
{ "type": "Feature", "properties": { "id": 350567, "latitude": 54.9425, "longitude": -2.7349, "Location": "Brampton" }, "geometry": { "type": "Point", "coordinates": [ -2.7349, 54.9425 ] } }
,
{ "type": "Feature", "properties": { "id": 350572, "latitude": 56.3929, "longitude": -3.4085, "Location": "Branklyn Gardens" }, "geometry": { "type": "Point", "coordinates": [ -3.4085, 56.3929 ] } }
,
{ "type": "Feature", "properties": { "id": 350577, "latitude": 52.6177, "longitude": -1.1764, "Location": "Braunstone" }, "geometry": { "type": "Point", "coordinates": [ -1.1764, 52.6177 ] } }
,
{ "type": "Feature", "properties": { "id": 350582, "latitude": 53.5825, "longitude": -2.3962, "Location": "Breightmet" }, "geometry": { "type": "Point", "coordinates": [ -2.3962, 53.5825 ] } }
,
{ "type": "Feature", "properties": { "id": 350585, "latitude": 51.5927, "longitude": 0.2935, "Location": "Brentwood Ski Centre" }, "geometry": { "type": "Point", "coordinates": [ 0.2935, 51.5927 ] } }
,
{ "type": "Feature", "properties": { "id": 350587, "latitude": 53.297, "longitude": -1.7046, "Location": "Bretton Youth Hostel" }, "geometry": { "type": "Point", "coordinates": [ -1.7046, 53.297 ] } }
,
{ "type": "Feature", "properties": { "id": 350592, "latitude": 51.5039, "longitude": -3.5757, "Location": "Bridgend (Bridgend)" }, "geometry": { "type": "Point", "coordinates": [ -3.5757, 51.5039 ] } }
,
{ "type": "Feature", "properties": { "id": 350597, "latitude": 54.0851, "longitude": -0.1971, "Location": "Bridlington" }, "geometry": { "type": "Point", "coordinates": [ -0.1971, 54.0851 ] } }
,
{ "type": "Feature", "properties": { "id": 350605, "latitude": 53.3631, "longitude": -1.5001, "Location": "Brincliffe" }, "geometry": { "type": "Point", "coordinates": [ -1.5001, 53.3631 ] } }
,
{ "type": "Feature", "properties": { "id": 350607, "latitude": 53.4305, "longitude": -2.1303, "Location": "Brinnington" }, "geometry": { "type": "Point", "coordinates": [ -2.1303, 53.4305 ] } }
,
{ "type": "Feature", "properties": { "id": 350608, "latitude": 51.4319, "longitude": -2.5501, "Location": "Brislington" }, "geometry": { "type": "Point", "coordinates": [ -2.5501, 51.4319 ] } }
,
{ "type": "Feature", "properties": { "id": 350609, "latitude": 52.4775, "longitude": -2.0016, "Location": "Bristnall Fields" }, "geometry": { "type": "Point", "coordinates": [ -2.0016, 52.4775 ] } }
,
{ "type": "Feature", "properties": { "id": 350611, "latitude": 51.5177, "longitude": -2.5802, "Location": "Bristol Filton Airport" }, "geometry": { "type": "Point", "coordinates": [ -2.5802, 51.5177 ] } }
,
{ "type": "Feature", "properties": { "id": 350612, "latitude": 51.3829, "longitude": -2.714, "Location": "Bristol International Airport" }, "geometry": { "type": "Point", "coordinates": [ -2.714, 51.3829 ] } }
,
{ "type": "Feature", "properties": { "id": 350615, "latitude": 51.6317, "longitude": -3.8231, "Location": "Briton Ferry" }, "geometry": { "type": "Point", "coordinates": [ -3.8231, 51.6317 ] } }
,
{ "type": "Feature", "properties": { "id": 350617, "latitude": 51.7853, "longitude": -5.0939, "Location": "Broad Haven Youth Hostel" }, "geometry": { "type": "Point", "coordinates": [ -5.0939, 51.7853 ] } }
,
{ "type": "Feature", "properties": { "id": 350629, "latitude": 50.8184, "longitude": -1.5743, "Location": "Brockenhurst" }, "geometry": { "type": "Point", "coordinates": [ -1.5743, 50.8184 ] } }
,
{ "type": "Feature", "properties": { "id": 350638, "latitude": 51.405, "longitude": 0.1278, "Location": "Bromley Ski Centre" }, "geometry": { "type": "Point", "coordinates": [ 0.1278, 51.405 ] } }
,
{ "type": "Feature", "properties": { "id": 350649, "latitude": 54.8938, "longitude": -6.2023, "Location": "Broughshane" }, "geometry": { "type": "Point", "coordinates": [ -6.2023, 54.8938 ] } }
,
{ "type": "Feature", "properties": { "id": 350650, "latitude": 52.0458, "longitude": -1.3934, "Location": "Broughton Castle" }, "geometry": { "type": "Point", "coordinates": [ -1.3934, 52.0458 ] } }
,
{ "type": "Feature", "properties": { "id": 350651, "latitude": 54.8372, "longitude": -4.0514, "Location": "Broughton House (Kirkcudbright)" }, "geometry": { "type": "Point", "coordinates": [ -4.0514, 54.8372 ] } }
,
{ "type": "Feature", "properties": { "id": 350652, "latitude": 54.2775, "longitude": -3.2099, "Location": "Broughton In Furness" }, "geometry": { "type": "Point", "coordinates": [ -3.2099, 54.2775 ] } }
,
{ "type": "Feature", "properties": { "id": 350658, "latitude": 53.1395, "longitude": -2.8411, "Location": "Bruera" }, "geometry": { "type": "Point", "coordinates": [ -2.8411, 53.1395 ] } }
,
{ "type": "Feature", "properties": { "id": 350665, "latitude": 56.1745, "longitude": -3.0293, "Location": "Buckhaven" }, "geometry": { "type": "Point", "coordinates": [ -3.0293, 56.1745 ] } }
,
{ "type": "Feature", "properties": { "id": 350668, "latitude": 50.6305, "longitude": -3.319, "Location": "Budleigh Salterton" }, "geometry": { "type": "Point", "coordinates": [ -3.319, 50.6305 ] } }
,
{ "type": "Feature", "properties": { "id": 350670, "latitude": 52.4551, "longitude": 1.4457, "Location": "Bungay" }, "geometry": { "type": "Point", "coordinates": [ 1.4457, 52.4551 ] } }
,
{ "type": "Feature", "properties": { "id": 350677, "latitude": 50.8238, "longitude": -1.6892, "Location": "Burley Youth Hostel" }, "geometry": { "type": "Point", "coordinates": [ -1.6892, 50.8238 ] } }
,
{ "type": "Feature", "properties": { "id": 352944, "latitude": 51.4818, "longitude": -1.0857, "Location": "Pangbourne" }, "geometry": { "type": "Point", "coordinates": [ -1.0857, 51.4818 ] } }
,
{ "type": "Feature", "properties": { "id": 352952, "latitude": 53.3831, "longitude": -1.448, "Location": "Park Hill" }, "geometry": { "type": "Point", "coordinates": [ -1.448, 53.3831 ] } }
,
{ "type": "Feature", "properties": { "id": 352954, "latitude": 55.9197, "longitude": -4.4273, "Location": "Parkhall" }, "geometry": { "type": "Point", "coordinates": [ -4.4273, 55.9197 ] } }
,
{ "type": "Feature", "properties": { "id": 352959, "latitude": 55.8742, "longitude": -4.3092, "Location": "Partick" }, "geometry": { "type": "Point", "coordinates": [ -4.3092, 55.8742 ] } }
,
{ "type": "Feature", "properties": { "id": 352962, "latitude": 51.0354, "longitude": 0.4322, "Location": "Pashley Manor Gardens" }, "geometry": { "type": "Point", "coordinates": [ 0.4322, 51.0354 ] } }
,
{ "type": "Feature", "properties": { "id": 352963, "latitude": 51.5357, "longitude": -2.5593, "Location": "Patchway" }, "geometry": { "type": "Point", "coordinates": [ -2.5593, 51.5357 ] } }
,
{ "type": "Feature", "properties": { "id": 352966, "latitude": 54.6953, "longitude": -6.0218, "Location": "Patterson's Spade Mill (Nt)" }, "geometry": { "type": "Point", "coordinates": [ -6.0218, 54.6953 ] } }
,
{ "type": "Feature", "properties": { "id": 352969, "latitude": 50.7927, "longitude": -0.0036, "Location": "Peacehaven" }, "geometry": { "type": "Point", "coordinates": [ -0.0036, 50.7927 ] } }
,
{ "type": "Feature", "properties": { "id": 352973, "latitude": 53.4745, "longitude": -2.3806, "Location": "Peel Green" }, "geometry": { "type": "Point", "coordinates": [ -2.3806, 53.4745 ] } }
,
{ "type": "Feature", "properties": { "id": 352975, "latitude": 50.365, "longitude": -4.5245, "Location": "Pelynt" }, "geometry": { "type": "Point", "coordinates": [ -4.5245, 50.365 ] } }
,
{ "type": "Feature", "properties": { "id": 352980, "latitude": 51.4384, "longitude": -3.1722, "Location": "Penarth" }, "geometry": { "type": "Point", "coordinates": [ -3.1722, 51.4384 ] } }
,
{ "type": "Feature", "properties": { "id": 352986, "latitude": 50.8895, "longitude": -2.6818, "Location": "Pendomer" }, "geometry": { "type": "Point", "coordinates": [ -2.6818, 50.8895 ] } }
,
{ "type": "Feature", "properties": { "id": 352987, "latitude": 50.9221, "longitude": 0.4109, "Location": "Penhurst" }, "geometry": { "type": "Point", "coordinates": [ 0.4109, 50.9221 ] } }
,
{ "type": "Feature", "properties": { "id": 352993, "latitude": 52.0523, "longitude": -4.377, "Location": "Penrhiw-Llan" }, "geometry": { "type": "Point", "coordinates": [ -4.377, 52.0523 ] } }
,
{ "type": "Feature", "properties": { "id": 352995, "latitude": 52.5002, "longitude": -2.1336, "Location": "Pensnett" }, "geometry": { "type": "Point", "coordinates": [ -2.1336, 52.5002 ] } }
,
{ "type": "Feature", "properties": { "id": 353002, "latitude": 50.1193, "longitude": -5.5584, "Location": "Penzance Youth Hostel" }, "geometry": { "type": "Point", "coordinates": [ -5.5584, 50.1193 ] } }
,
{ "type": "Feature", "properties": { "id": 353005, "latitude": 50.3437, "longitude": -5.1585, "Location": "Perranporth Youth Hostel" }, "geometry": { "type": "Point", "coordinates": [ -5.1585, 50.3437 ] } }
,
{ "type": "Feature", "properties": { "id": 353009, "latitude": 54.7623, "longitude": -1.3274, "Location": "Peterlee" }, "geometry": { "type": "Point", "coordinates": [ -1.3274, 54.7623 ] } }
,
{ "type": "Feature", "properties": { "id": 353019, "latitude": 55.1467, "longitude": -4.8317, "Location": "Pinwherry" }, "geometry": { "type": "Point", "coordinates": [ -4.8317, 55.1467 ] } }
,
{ "type": "Feature", "properties": { "id": 353020, "latitude": 51.9738, "longitude": -0.3369, "Location": "Pirton" }, "geometry": { "type": "Point", "coordinates": [ -0.3369, 51.9738 ] } }
,
{ "type": "Feature", "properties": { "id": 353026, "latitude": 53.4023, "longitude": -1.4569, "Location": "Pitsmoor" }, "geometry": { "type": "Point", "coordinates": [ -1.4569, 53.4023 ] } }
,
{ "type": "Feature", "properties": { "id": 353030, "latitude": 53.2015, "longitude": -4.2167, "Location": "Plas Newydd (Anglesey)" }, "geometry": { "type": "Point", "coordinates": [ -4.2167, 53.2015 ] } }
,
{ "type": "Feature", "properties": { "id": 353032, "latitude": 53.1028, "longitude": -3.9151, "Location": "Plas-Y-Brenin National Centre For The Mountains" }, "geometry": { "type": "Point", "coordinates": [ -3.9151, 53.1028 ] } }
,
{ "type": "Feature", "properties": { "id": 353035, "latitude": 52.5945, "longitude": 1.7378, "Location": "Pleasure Beach Great Yarmouth" }, "geometry": { "type": "Point", "coordinates": [ 1.7378, 52.5945 ] } }
,
{ "type": "Feature", "properties": { "id": 353037, "latitude": 52.5045, "longitude": 1.7418, "Location": "Pleasurewood Hills Theme Park Lowestoft" }, "geometry": { "type": "Point", "coordinates": [ 1.7418, 52.5045 ] } }
,
{ "type": "Feature", "properties": { "id": 353038, "latitude": 52.5734, "longitude": -2.0037, "Location": "Pleck" }, "geometry": { "type": "Point", "coordinates": [ -2.0037, 52.5734 ] } }
,
{ "type": "Feature", "properties": { "id": 353046, "latitude": 53.9308, "longitude": -0.7773, "Location": "Pocklington" }, "geometry": { "type": "Point", "coordinates": [ -0.7773, 53.9308 ] } }
,
{ "type": "Feature", "properties": { "id": 353047, "latitude": 50.8235, "longitude": 0.2454, "Location": "Polegate" }, "geometry": { "type": "Point", "coordinates": [ 0.2454, 50.8235 ] } }
,
{ "type": "Feature", "properties": { "id": 353048, "latitude": 51.2568, "longitude": -0.3787, "Location": "Polesden Lacey" }, "geometry": { "type": "Point", "coordinates": [ -0.3787, 51.2568 ] } }
,
{ "type": "Feature", "properties": { "id": 353051, "latitude": 55.8191, "longitude": -4.2998, "Location": "Pollokshaws" }, "geometry": { "type": "Point", "coordinates": [ -4.2998, 55.8191 ] } }
,
{ "type": "Feature", "properties": { "id": 353056, "latitude": 51.72, "longitude": -3.852, "Location": "Pontardawe" }, "geometry": { "type": "Point", "coordinates": [ -3.852, 51.72 ] } }
,
{ "type": "Feature", "properties": { "id": 353057, "latitude": 51.7119, "longitude": -4.0359, "Location": "Pontarddulais" }, "geometry": { "type": "Point", "coordinates": [ -4.0359, 51.7119 ] } }
,
{ "type": "Feature", "properties": { "id": 353064, "latitude": 51.6987, "longitude": -3.0272, "Location": "Pontypool Ski Centre" }, "geometry": { "type": "Point", "coordinates": [ -3.0272, 51.6987 ] } }
,
{ "type": "Feature", "properties": { "id": 353077, "latitude": 54.076, "longitude": -4.7381, "Location": "Port St. Mary" }, "geometry": { "type": "Point", "coordinates": [ -4.7381, 54.076 ] } }
,
{ "type": "Feature", "properties": { "id": 353078, "latitude": 54.4216, "longitude": -6.4445, "Location": "Portadown" }, "geometry": { "type": "Point", "coordinates": [ -6.4445, 54.4216 ] } }
,
{ "type": "Feature", "properties": { "id": 353079, "latitude": 54.3808, "longitude": -5.5472, "Location": "Portaferry" }, "geometry": { "type": "Point", "coordinates": [ -5.5472, 54.3808 ] } }
,
{ "type": "Feature", "properties": { "id": 353082, "latitude": 51.6131, "longitude": -3.4059, "Location": "Porth" }, "geometry": { "type": "Point", "coordinates": [ -3.4059, 51.6131 ] } }
,
{ "type": "Feature", "properties": { "id": 350680, "latitude": 53.565, "longitude": -2.4153, "Location": "Burnden" }, "geometry": { "type": "Point", "coordinates": [ -2.4153, 53.565 ] } }
,
{ "type": "Feature", "properties": { "id": 350688, "latitude": 52.8224, "longitude": -0.5484, "Location": "Burton Coggles" }, "geometry": { "type": "Point", "coordinates": [ -0.5484, 52.8224 ] } }
,
{ "type": "Feature", "properties": { "id": 350694, "latitude": 51.6472, "longitude": -0.3569, "Location": "Bushey" }, "geometry": { "type": "Point", "coordinates": [ -0.3569, 51.6472 ] } }
,
{ "type": "Feature", "properties": { "id": 350695, "latitude": 55.2078, "longitude": -6.5214, "Location": "Bushmills" },